<?xml version="1.0" encoding="UTF-8" standalone="yes"?>
<root>
    <locations>
        <location id="1392685764" name="Tokyo" lat="35.6897" lng="139.6922"/>
        <location id="1360771077" name="Jakarta" lat="-6.2146" lng="106.8451"/>
        <location id="1356872604" name="Delhi" lat="28.66" lng="77.23"/>
        <location id="1356226629" name="Mumbai" lat="18.9667" lng="72.8333"/>
        <location id="1608618140" name="Manila" lat="14.5958" lng="120.9772"/>
        <location id="1156073548" name="Shanghai" lat="31.1667" lng="121.4667"/>
        <location id="1076532519" name="Sao Paulo" lat="-23.5504" lng="-46.6339"/>
        <location id="1410836482" name="Seoul" lat="37.5833" lng="127.0"/>
        <location id="1484247881" name="Mexico City" lat="19.4333" lng="-99.1333"/>
        <location id="1156237133" name="Guangzhou" lat="23.1288" lng="113.259"/>
        <location id="1156228865" name="Beijing" lat="39.905" lng="116.3914"/>
        <location id="1818253931" name="Cairo" lat="30.0561" lng="31.2394"/>
        <location id="1840034016" name="New York" lat="40.6943" lng="-73.9249"/>
        <location id="1356060520" name="Kolkata" lat="22.5411" lng="88.3378"/>
        <location id="1643318494" name="Moscow" lat="55.7558" lng="37.6178"/>
        <location id="1764068610" name="Bangkok" lat="13.75" lng="100.5167"/>
        <location id="1032717330" name="Buenos Aires" lat="-34.5997" lng="-58.3819"/>
        <location id="1156158707" name="Shenzhen" lat="22.535" lng="114.054"/>
        <location id="1050529279" name="Dhaka" lat="23.7161" lng="90.3961"/>
        <location id="1566593751" name="Lagos" lat="16589.0" lng="44289.0"/>
        <location id="1792756324" name="Istanbul" lat="41.01" lng="28.9603"/>
        <location id="1392419823" name="Osaka" lat="34.6936" lng="135.5019"/>
        <location id="1586129469" name="Karachi" lat="24.86" lng="67.01"/>
        <location id="1356410365" name="Bangalore" lat="2848863.0" lng="77.598"/>
        <location id="1364305026" name="Tehran" lat="35.7" lng="51.4167"/>
        <location id="1180000363" name="Kinshasa" lat="-4.3317" lng="15.3139"/>
        <location id="1704774326" name="Ho Chi Minh City" lat="2289250.0" lng="106.6333"/>
        <location id="1840020491" name="Los Angeles" lat="34.1139" lng="-118.4068"/>
        <location id="1076887657" name="Rio de Janeiro" lat="-22.9083" lng="-43.1964"/>
        <location id="1156192287" name="Nanyang" lat="32.9987" lng="112.5292"/>
        <location id="1356374944" name="Chennai" lat="13.0825" lng="80.275"/>
        <location id="1156421555" name="Chengdu" lat="30.6636" lng="104.0667"/>
        <location id="1586801463" name="Lahore" lat="31.5497" lng="74.3436"/>
        <location id="1250015082" name="Paris" lat="48.8566" lng="592456.0"/>
        <location id="1826645935" name="London" lat="51.5072" lng="-0.1275"/>
        <location id="1156086320" name="Linyi" lat="35.0606" lng="118.3425"/>
        <location id="1156174046" name="Tianjin" lat="39.1467" lng="117.2056"/>
        <location id="1156217541" name="Shijiazhuang" lat="38.0422" lng="114.5086"/>
        <location id="1156256829" name="Baoding" lat="38.8671" lng="115.4845"/>
        <location id="1156272098" name="Zhoukou" lat="33.625" lng="114.6418"/>
        <location id="1604728603" name="Lima" lat="-12.05" lng="-77.0333"/>
        <location id="1356871768" name="Hyderabad" lat="17.3667" lng="78.4667"/>
        <location id="1170483426" name="Bogota" lat="1543607.0" lng="-74.0705"/>
        <location id="1156912965" name="Weifang" lat="36.7167" lng="119.1"/>
        <location id="1392407472" name="Nagoya" lat="35.1167" lng="136.9333"/>
        <location id="1156117184" name="Wuhan" lat="30.5872" lng="114.2881"/>
        <location id="1156225008" name="Heze" lat="35.2333" lng="115.4333"/>
        <location id="1156832475" name="Ganzhou" lat="25.8292" lng="114.9336"/>
        <location id="1156241678" name="Tongshan" lat="34.261" lng="117.1859"/>
        <location id="1840000494" name="Chicago" lat="41.8373" lng="-87.6862"/>
        <location id="1156957080" name="Handan" lat="36.6116" lng="114.4894"/>
        <location id="1024949724" name="Luanda" lat="-8.8383" lng="13.2344"/>
        <location id="1156248008" name="Fuyang" lat="32.8986" lng="115.8045"/>
        <location id="1458988644" name="Kuala Lumpur" lat="3.1478" lng="101.6953"/>
        <location id="1156504601" name="Jining" lat="35.4" lng="116.5667"/>
        <location id="1156478242" name="Dongguan" lat="23.0475" lng="113.7493"/>
        <location id="1704413791" name="Hanoi" lat="21.0245" lng="105.8412"/>
        <location id="1356081074" name="Pune" lat="18.5196" lng="73.8553"/>
        <location id="1156936556" name="Chongqing" lat="29.55" lng="106.5069"/>
        <location id="1156078103" name="Changchun" lat="43.9" lng="125.2"/>
        <location id="1156184822" name="Zhumadian" lat="32.9773" lng="114.0253"/>
        <location id="1156170787" name="Ningbo" lat="29.875" lng="121.5492"/>
        <location id="1566593483" name="Onitsha" lat="6.1667" lng="2167137.0"/>
        <location id="1156644065" name="Nanjing" lat="32.05" lng="118.7667"/>
        <location id="1156332710" name="Hefei" lat="31.8639" lng="117.2808"/>
        <location id="1356304381" name="Ahmadabad" lat="44278.0" lng="72.58"/>
        <location id="1344982653" name="Hong Kong" lat="22.305" lng="114.185"/>
        <location id="1729268475" name="Khartoum" lat="15.6031" lng="32.5265"/>
        <location id="1156045365" name="Nantong" lat="31.9829" lng="120.8873"/>
        <location id="1156995410" name="Yancheng" lat="33.3936" lng="120.1339"/>
        <location id="1156738403" name="Foshan" lat="23.0292" lng="113.1056"/>
        <location id="1156605439" name="Nanning" lat="22.8192" lng="108.315"/>
        <location id="1156696884" name="Hengyang" lat="26.8968" lng="112.5857"/>
        <location id="1156244079" name="Xi'an" lat="34.2667" lng="108.9"/>
        <location id="1156309382" name="Shenyang" lat="41.8039" lng="123.4258"/>
        <location id="1156904299" name="Tangshan" lat="39.6292" lng="118.1742"/>
        <location id="1156310366" name="Shaoyang" lat="27.2418" lng="111.4725"/>
        <location id="1156961497" name="Changsha" lat="28.1987" lng="112.9709"/>
        <location id="1152554349" name="Santiago" lat="-33.45" lng="-70.6667"/>
        <location id="1156183137" name="Zhengzhou" lat="34.7492" lng="113.6605"/>
        <location id="1156502170" name="Zhanjiang" lat="21.1967" lng="110.4031"/>
        <location id="1682999334" name="Riyadh" lat="24.65" lng="46.71"/>
        <location id="1156698069" name="Cangzhou" lat="38.3037" lng="116.8452"/>
        <location id="1834843853" name="Dar es Salaam" lat="-6.8" lng="39.2833"/>
        <location id="1156568722" name="Maoming" lat="21.6618" lng="110.9178"/>
        <location id="1156200037" name="Huanggang" lat="30.45" lng="114.875"/>
        <location id="1156273453" name="Xinyang" lat="32.1264" lng="114.0672"/>
        <location id="1156405492" name="Shangrao" lat="28.4419" lng="117.9633"/>
        <location id="1156069315" name="Luoyang" lat="34.6587" lng="112.4245"/>
        <location id="1156018927" name="Bijie" lat="27.3019" lng="105.2863"/>
        <location id="1156932948" name="Yantai" lat="37.3997" lng="121.2664"/>
        <location id="1156829655" name="Quanzhou" lat="24.9139" lng="118.5858"/>
        <location id="1156275243" name="Hangzhou" lat="30.25" lng="120.1675"/>
        <location id="1840015149" name="Miami" lat="25.7839" lng="-80.2102"/>
        <location id="1156477539" name="Kunming" lat="25.0433" lng="102.7061"/>
        <location id="1156762337" name="Nanchong" lat="30.7991" lng="106.0784"/>
        <location id="1156539782" name="Zunyi" lat="27.705" lng="106.9336"/>
        <location id="1156499624" name="Lu'an" lat="31.7542" lng="116.5078"/>
        <location id="1156229590" name="Yichun" lat="27.8041" lng="114.383"/>
        <location id="1156322307" name="Taizhou" lat="28.6583" lng="121.4221"/>
        <location id="1156006600" name="Liaocheng" lat="36.45" lng="115.9833"/>
        <location id="1156747998" name="Qujing" lat="25.5102" lng="103.8029"/>
        <location id="1156107325" name="Xiangyang" lat="32.0654" lng="112.1531"/>
        <location id="1356758738" name="Surat" lat="21.17" lng="72.83"/>
        <location id="1368596238" name="Baghdad" lat="33.35" lng="44.4167"/>
        <location id="1156112588" name="Qingdao" lat="36.1167" lng="120.4"/>
        <location id="1702341327" name="Singapore" lat="44256.0" lng="103.8"/>
        <location id="1840019440" name="Dallas" lat="32.7936" lng="-96.7662"/>
        <location id="1156449091" name="Changde" lat="29.0397" lng="111.6839"/>
        <location id="1156834076" name="Dazhou" lat="31.2152" lng="107.4947"/>
        <location id="1156871297" name="Suzhou" lat="33.6333" lng="116.9683"/>
        <location id="1840000673" name="Philadelphia" lat="40.0077" lng="-75.1339"/>
        <location id="1156260378" name="Jieyang" lat="23.5533" lng="116.3649"/>
        <location id="1404000661" name="Nairobi" lat="-1.2864" lng="36.8172"/>
        <location id="1156127660" name="Nangandao" lat="35.2992" lng="113.8851"/>
        <location id="1792572891" name="Ankara" lat="39.93" lng="32.85"/>
        <location id="1156095188" name="Tai'an" lat="36.2001" lng="117.0809"/>
        <location id="1156901312" name="Yulin" lat="22.6293" lng="110.1507"/>
        <location id="1156524080" name="Dezhou" lat="37.4513" lng="116.3105"/>
        <location id="1840020925" name="Houston" lat="29.7863" lng="-95.3889"/>
        <location id="1840013660" name="Atlanta" lat="33.7627" lng="-84.4224"/>
        <location id="1104616656" name="Rangoon" lat="44424.0" lng="96.15"/>
        <location id="1124279679" name="Toronto" lat="43.7417" lng="-79.3733"/>
        <location id="1156235493" name="Suihua" lat="46.6384" lng="126.9808"/>
        <location id="1840006060" name="Washington" lat="38.9047" lng="-77.0163"/>
        <location id="1156775905" name="Qiqihar" lat="47.3398" lng="123.9512"/>
        <location id="1156547188" name="Jinhua" lat="29.1046" lng="119.6494"/>
        <location id="1643616350" name="Saint Petersburg" lat="59.95" lng="30.3167"/>
        <location id="1156457499" name="Shantou" lat="23.3735" lng="116.6941"/>
        <location id="1036074917" name="Sydney" lat="-33.865" lng="151.2094"/>
        <location id="1156903687" name="Weinan" lat="34.4996" lng="109.4684"/>
        <location id="1156212349" name="Suqian" lat="33.9331" lng="118.2831"/>
        <location id="1484950208" name="Guadalajara" lat="20.6767" lng="-103.3475"/>
        <location id="1156029196" name="Suzhou" lat="31.304" lng="120.6164"/>
        <location id="1156188037" name="Fuzhou" lat="26.0769" lng="119.2917"/>
        <location id="1156924687" name="Zhaotong" lat="27.3328" lng="103.7144"/>
        <location id="1156644508" name="Pudong" lat="31.2231" lng="121.5397"/>
        <location id="1156694479" name="Yongzhou" lat="26.4515" lng="111.5953"/>
        <location id="1076967355" name="Belo Horizonte" lat="-19.8917" lng="-43.9478"/>
        <location id="1156241637" name="Zhangzhou" lat="24.5093" lng="117.6612"/>
        <location id="1156356860" name="Bozhou" lat="33.8626" lng="115.7742"/>
        <location id="1036533631" name="Melbourne" lat="-37.8136" lng="144.9631"/>
        <location id="1156198892" name="Nanchang" lat="28.6842" lng="115.8872"/>
        <location id="1156120117" name="Xianyang" lat="34.35" lng="108.7167"/>
        <location id="1156119229" name="Taizhou" lat="32.4831" lng="119.9"/>
        <location id="1360484663" name="Surabaya" lat="-7.2458" lng="112.7378"/>
        <location id="1384207980" name="Abidjan" lat="534838.0" lng="-4.0267"/>
        <location id="1156278215" name="Ji'an" lat="27.1172" lng="114.9793"/>
        <location id="1156417758" name="Mianyang" lat="31.4669" lng="104.7385"/>
        <location id="1156893449" name="Shaoxing" lat="30.0" lng="120.5833"/>
        <location id="1818695837" name="Alexandria" lat="31.2" lng="29.9167"/>
        <location id="1156705644" name="Yuncheng" lat="35.0304" lng="110.998"/>
        <location id="1156735124" name="Pingdingshan" lat="33.735" lng="113.2999"/>
        <location id="1156634228" name="Huai'an" lat="33.5" lng="119.1331"/>
        <location id="1156035381" name="Xinpu" lat="34.5906" lng="119.1801"/>
        <location id="1156235364" name="Guilin" lat="25.2667" lng="110.2833"/>
        <location id="1156353465" name="Huaihua" lat="27.5494" lng="109.9592"/>
        <location id="1156206041" name="Jiujiang" lat="29.7048" lng="116.0021"/>
        <location id="1156238875" name="Anqing" lat="44346.0" lng="117.0333"/>
        <location id="1840000455" name="Boston" lat="42.3188" lng="-71.0846"/>
        <location id="1156198356" name="Huanglongsi" lat="34.7936" lng="114.3403"/>
        <location id="1156002290" name="Xiaoganzhan" lat="30.9273" lng="113.911"/>
        <location id="1156185511" name="Changzhou" lat="31.8122" lng="119.9692"/>
        <location id="1724594040" name="Barcelona" lat="41.3825" lng="2.1769"/>
        <location id="1156291915" name="Chenzhou" lat="25.7989" lng="113.0267"/>
        <location id="1156019650" name="Wuxi" lat="31.5667" lng="120.2833"/>
        <location id="1156381094" name="Zibo" lat="36.7831" lng="118.0497"/>
        <location id="1156491661" name="Jiaxing" lat="30.7522" lng="120.75"/>
        <location id="1156175472" name="Dalian" lat="38.9131" lng="121.61"/>
        <location id="1156241528" name="Harbin" lat="45.75" lng="126.6333"/>
        <location id="1156818601" name="Yangzhou" lat="32.3912" lng="119.4363"/>
        <location id="1156107603" name="Yibin" lat="28.7596" lng="104.64"/>
        <location id="1156105613" name="Jiangmen" lat="22.5833" lng="113.0833"/>
        <location id="1710550792" name="Johannesburg" lat="-26.2044" lng="28.0416"/>
        <location id="1156361028" name="Meizhou" lat="24.2998" lng="116.1191"/>
        <location id="1156277458" name="Chifeng" lat="42.2663" lng="118.9223"/>
        <location id="1504175315" name="Casablanca" lat="33.5992" lng="-7.62"/>
        <location id="1156932620" name="Guiyang" lat="26.5794" lng="106.7078"/>
        <location id="1156109017" name="Langfang" lat="39.5196" lng="116.7006"/>
        <location id="1156800221" name="Zhangjiakou" lat="40.8108" lng="114.8811"/>
        <location id="1792725579" name="Izmir" lat="38.4127" lng="27.1384"/>
        <location id="1156416074" name="Linfen" lat="36.0812" lng="111.5087"/>
        <location id="1156188829" name="Wenzhou" lat="27.9991" lng="120.6561"/>
        <location id="1484559591" name="Monterrey" lat="25.6667" lng="-100.3"/>
        <location id="1156582079" name="Luzhou" lat="28.8918" lng="105.4409"/>
        <location id="1156235735" name="Jiangguanchi" lat="34.0244" lng="113.8201"/>
        <location id="1156516335" name="Neijiang" lat="29.5872" lng="105.0635"/>
        <location id="1840020568" name="Phoenix" lat="33.5722" lng="-112.0891"/>
        <location id="1156217114" name="Yanjiang" lat="30.1256" lng="104.6397"/>
        <location id="1156218615" name="Yiyang" lat="28.5833" lng="112.3333"/>
        <location id="1156170144" name="Zhaoqing" lat="23.047" lng="112.465"/>
        <location id="1156803028" name="Hengshui" lat="37.7348" lng="115.686"/>
        <location id="1156895251" name="Guigang" lat="23.0961" lng="109.6092"/>
        <location id="1156764447" name="Xiaoxita" lat="30.7083" lng="111.2803"/>
        <location id="1156212809" name="Xiamen" lat="24.4797" lng="118.0819"/>
        <location id="1156036420" name="Chuzhou" lat="32.3062" lng="118.3115"/>
        <location id="1156915325" name="Fuzhou" lat="27.9814" lng="116.3577"/>
        <location id="1400522593" name="Amman" lat="31.95" lng="35.9333"/>
        <location id="1682926944" name="Jeddah" lat="21.5428" lng="39.1728"/>
        <location id="1586141444" name="Sialkot City" lat="32.5" lng="74.5333"/>
        <location id="1156203268" name="Huizhou" lat="23.1115" lng="114.4152"/>
        <location id="1156135890" name="Qingyuan" lat="23.6842" lng="113.0507"/>
        <location id="1156041962" name="Zhuzhou" lat="27.8407" lng="113.1469"/>
        <location id="1156315512" name="Wuhu" lat="31.334" lng="118.3622"/>
        <location id="1156868701" name="Hechi" lat="23.0965" lng="109.6091"/>
        <location id="1840021117" name="Seattle" lat="47.6211" lng="-122.3244"/>
        <location id="1156010654" name="Loudi" lat="27.7378" lng="111.9974"/>
        <location id="1156564962" name="Binzhou" lat="37.3806" lng="118.0125"/>
        <location id="1156360785" name="Liuzhou" lat="24.3181" lng="109.4069"/>
        <location id="1392118339" name="Yokohama" lat="35.4333" lng="139.6333"/>
        <location id="1156101096" name="Baojishi" lat="34.3609" lng="107.1751"/>
        <location id="1156377302" name="Guang'an" lat="30.4673" lng="106.6336"/>
        <location id="1156382678" name="Hanzhong" lat="33.0794" lng="107.026"/>
        <location id="1004993580" name="Kabul" lat="34.5328" lng="69.1658"/>
        <location id="1156796454" name="Zaozhuang" lat="34.8667" lng="117.55"/>
        <location id="1276451290" name="Berlin" lat="52.5167" lng="13.3833"/>
        <location id="1156901825" name="Anshan" lat="41.1066" lng="122.9895"/>
        <location id="1156127147" name="Deyang" lat="31.1289" lng="104.395"/>
        <location id="1156280566" name="Lanzhou" lat="36.0617" lng="103.8318"/>
        <location id="1156197800" name="Chengde" lat="40.9739" lng="117.9322"/>
        <location id="1840021543" name="San Francisco" lat="37.7562" lng="-122.443"/>
        <location id="1156431924" name="Puyang" lat="35.7639" lng="115.03"/>
        <location id="1156655650" name="Suining" lat="30.5098" lng="105.5737"/>
        <location id="1156157854" name="Jiaozuo" lat="35.229" lng="113.2304"/>
        <location id="1156440668" name="Bengbu" lat="32.9354" lng="117.3531"/>
        <location id="1124586170" name="Montreal" lat="45.5089" lng="-73.5617"/>
        <location id="1840003971" name="Detroit" lat="42.3834" lng="-83.1024"/>
        <location id="1156981113" name="Baicheng" lat="23.901" lng="106.6194"/>
        <location id="1410601465" name="Busan" lat="35.1" lng="129.0403"/>
        <location id="1012973369" name="Algiers" lat="36.7764" lng="3.0586"/>
        <location id="1156104017" name="Qincheng" lat="34.5809" lng="105.7311"/>
        <location id="1156632014" name="Taiyuan" lat="37.8733" lng="112.5425"/>
        <location id="1356891790" name="Lucknow" lat="26.847" lng="80.947"/>
        <location id="1156706927" name="Chaoyang" lat="41.5757" lng="120.4486"/>
        <location id="1156167204" name="Hechi" lat="24.6928" lng="108.085"/>
        <location id="1156203130" name="Leshan" lat="29.5854" lng="103.7575"/>
        <location id="1156280672" name="Yulinshi" lat="38.2655" lng="109.7388"/>
        <location id="1156063295" name="Siping" lat="43.1715" lng="124.3644"/>
        <location id="1724616994" name="Madrid" lat="40.4189" lng="-3.6919"/>
        <location id="1156972469" name="Jinan" lat="36.6667" lng="116.9833"/>
        <location id="1156383921" name="Shiyan" lat="32.6351" lng="110.7755"/>
        <location id="1156057944" name="Changzhi" lat="36.1953" lng="113.097"/>
        <location id="1840021990" name="San Diego" lat="32.8312" lng="-117.1225"/>
        <location id="1586323916" name="Faisalabad" lat="31.418" lng="73.079"/>
        <location id="1068129363" name="Santa Cruz" lat="-17.7892" lng="-63.1975"/>
        <location id="1156271365" name="Bazhou" lat="31.8576" lng="106.7559"/>
        <location id="1156579621" name="Zhongshan" lat="22.5333" lng="113.35"/>
        <location id="1156934125" name="Zhenjiang" lat="32.2109" lng="119.4551"/>
        <location id="1156051276" name="Urumqi" lat="43.825" lng="87.6"/>
        <location id="1156358686" name="Tongliao" lat="43.6172" lng="122.264"/>
        <location id="1156665165" name="Heyuan" lat="23.7503" lng="114.6923"/>
        <location id="1156803442" name="Tongren" lat="27.7233" lng="109.1885"/>
        <location id="1156106602" name="Qinzhou" lat="21.95" lng="108.6167"/>
        <location id="1356293537" name="Jaipur" lat="26.9167" lng="75.8667"/>
        <location id="1156617534" name="Xinzhou" lat="38.4178" lng="112.7233"/>
        <location id="1231824991" name="Addis Ababa" lat="9.0272" lng="38.7369"/>
        <location id="1818925479" name="Giza" lat="29.987" lng="31.2118"/>
        <location id="1156185501" name="Meishan" lat="30.0575" lng="103.8381"/>
        <location id="1076144436" name="Brasilia" lat="-15.7744" lng="-48.0773"/>
        <location id="1364123206" name="Mashhad" lat="36.3069" lng="59.6042"/>
        <location id="1156157151" name="Jinzhou" lat="41.1144" lng="121.1292"/>
        <location id="1156089994" name="Tieling" lat="42.2841" lng="123.8365"/>
        <location id="1156617066" name="Shaoguan" lat="24.8011" lng="113.5927"/>
        <location id="1156939010" name="Shanwei" lat="22.7664" lng="115.3331"/>
        <location id="1840007830" name="Minneapolis" lat="44.9635" lng="-93.2678"/>
        <location id="1804382913" name="Kyiv" lat="50.45" lng="30.5236"/>
        <location id="1887750814" name="Sanaa" lat="15.35" lng="44.2"/>
        <location id="1608974097" name="Quezon City" lat="14.6333" lng="121.0333"/>
        <location id="1156518274" name="Dingxi" lat="35.5806" lng="104.6263"/>
        <location id="1076923789" name="Salvador" lat="-12.9708" lng="-38.5108"/>
        <location id="1410160313" name="Incheon" lat="37.4639" lng="126.6486"/>
        <location id="1792903330" name="Bursa" lat="40.1833" lng="29.0667"/>
        <location id="1156909802" name="Ningde" lat="26.6667" lng="119.5167"/>
        <location id="1840015982" name="Tampa" lat="27.9942" lng="-82.4451"/>
        <location id="1156403962" name="Daqing" lat="46.5979" lng="125.008"/>
        <location id="1826423213" name="Birmingham" lat="52.48" lng="-1.9025"/>
        <location id="1156811601" name="Putian" lat="25.4394" lng="119.0103"/>
        <location id="1156335543" name="Huzhou" lat="30.8695" lng="120.0958"/>
        <location id="1156620133" name="Wuzhou" lat="23.4833" lng="111.3167"/>
        <location id="1840018789" name="Denver" lat="39.7621" lng="-104.8759"/>
        <location id="1380382862" name="Rome" lat="41.8931" lng="1069767.0"/>
        <location id="1068000064" name="La Paz" lat="-16.4942" lng="-68.1475"/>
        <location id="1408738594" name="Pyongyang" lat="39.03" lng="125.73"/>
        <location id="1566422868" name="Kano" lat="12.0" lng="1193461.0"/>
        <location id="1158689622" name="Taichung" lat="24.15" lng="120.6667"/>
        <location id="1729912179" name="Omdurman" lat="15.6835" lng="32.4629"/>
        <location id="1156023354" name="Zigong" lat="29.3498" lng="104.7645"/>
        <location id="1156091093" name="Qinhuangdao" lat="39.9398" lng="119.5881"/>
        <location id="1156249698" name="Mudanjiang" lat="44.5861" lng="129.5997"/>
        <location id="1156580218" name="Huludao" lat="40.7094" lng="120.8378"/>
        <location id="1158331334" name="Kaohsiung" lat="22.6167" lng="120.3"/>
        <location id="1156195684" name="Xiangtan" lat="27.8431" lng="112.9228"/>
        <location id="1218802178" name="Guayaquil" lat="-2.1833" lng="-79.8833"/>
        <location id="1156032841" name="Rizhao" lat="35.4164" lng="119.4331"/>
        <location id="1826246335" name="Manchester" lat="53.4794" lng="-2.2453"/>
        <location id="1356575238" name="Cawnpore" lat="26.4725" lng="80.3311"/>
        <location id="1156032751" name="Baotou" lat="40.6562" lng="109.8345"/>
        <location id="1158881289" name="Taipei" lat="25.0478" lng="121.5319"/>
        <location id="1156927445" name="Nanping" lat="26.6448" lng="118.1728"/>
        <location id="1156012979" name="Longyan" lat="25.0881" lng="117.0244"/>
        <location id="1566366407" name="Ibadan" lat="754044.0" lng="2654278.0"/>
        <location id="1156210167" name="Hohhot" lat="40.8151" lng="111.6629"/>
        <location id="1156549118" name="Chaozhou" lat="23.67" lng="116.63"/>
        <location id="1450978461" name="Antananarivo" lat="-18.9386" lng="47.5214"/>
        <location id="1156633259" name="Longba" lat="33.535" lng="105.349"/>
        <location id="1156473300" name="Weihai" lat="37.5" lng="122.1"/>
        <location id="1050830722" name="Chattogram" lat="22.335" lng="91.8325"/>
        <location id="1214636202" name="Santo Domingo" lat="18.4764" lng="-69.8933"/>
        <location id="1156424311" name="Xuanzhou" lat="30.9475" lng="118.7518"/>
        <location id="1156294429" name="Sanming" lat="26.2658" lng="117.6302"/>
        <location id="1840034030" name="Brooklyn" lat="40.6501" lng="-73.9496"/>
        <location id="1170680389" name="Medellin" lat="199941.0" lng="-75.5748"/>
        <location id="1036192929" name="Brisbane" lat="-27.4678" lng="153.0281"/>
        <location id="1156546994" name="Baoshan" lat="25.1211" lng="99.169"/>
        <location id="1784736618" name="Dubai" lat="25.2697" lng="55.3094"/>
        <location id="1156330876" name="Luohe" lat="33.583" lng="114.0109"/>
        <location id="1156032582" name="Qinbaling" lat="35.7278" lng="107.64"/>
        <location id="1356427908" name="Mirzapur" lat="25.15" lng="82.58"/>
        <location id="1156084562" name="Guangyuan" lat="32.4353" lng="105.8398"/>
        <location id="1170417589" name="Cali" lat="16132.0" lng="-76.5197"/>
        <location id="1410095252" name="Daegu" lat="35.8667" lng="128.6"/>
        <location id="1076567885" name="Fortaleza" lat="-3.7275" lng="-38.5275"/>
        <location id="1320197916" name="Guatemala City" lat="14.6099" lng="-90.5252"/>
        <location id="1120298240" name="Yaounde" lat="2439151.0" lng="1198667.0"/>
        <location id="1120494607" name="Douala" lat="44320.0" lng="44386.0"/>
        <location id="1156646448" name="Jilin" lat="43.85" lng="126.55"/>
        <location id="1156046704" name="Lianshan" lat="40.7503" lng="120.83"/>
        <location id="1156044130" name="Lincang" lat="23.8864" lng="100.0871"/>
        <location id="1792988434" name="Antalya" lat="36.9081" lng="30.6956"/>
        <location id="1860331871" name="Tashkent" lat="41.3" lng="69.2667"/>
        <location id="1156234290" name="Huangshi" lat="30.2018" lng="115.0326"/>
        <location id="1360313023" name="Bandung" lat="-6.95" lng="107.5667"/>
        <location id="1356365743" name="Nagpur" lat="21.1539" lng="79.0831"/>
        <location id="1156178316" name="Dandong" lat="40.1167" lng="124.3833"/>
        <location id="1156877299" name="Huainan" lat="32.4831" lng="117.0164"/>
        <location id="1156091241" name="Shangzhou" lat="33.868" lng="109.9244"/>
        <location id="1360006015" name="Bekasi" lat="-6.2333" lng="107.0"/>
        <location id="1356691871" name="Ghaziabad" lat="28.6667" lng="77.4167"/>
        <location id="1484708778" name="Tijuana" lat="32.525" lng="-117.0333"/>
        <location id="1156350864" name="Jiamusi" lat="46.8081" lng="130.3653"/>
        <location id="1156123172" name="Yangjiang" lat="21.8556" lng="111.9627"/>
        <location id="1288299415" name="Accra" lat="1511131.0" lng="-0.187"/>
        <location id="1156682309" name="Yuxi" lat="24.3495" lng="102.5432"/>
        <location id="1156857743" name="Fushun" lat="41.8708" lng="123.8917"/>
        <location id="1156415948" name="Anshun" lat="26.2456" lng="105.934"/>
        <location id="1124825478" name="Vancouver" lat="49.25" lng="-123.1"/>
        <location id="1360002844" name="Tangerang" lat="-6.1783" lng="106.6319"/>
        <location id="1792014004" name="Konya" lat="37.8714" lng="32.4847"/>
        <location id="1840034002" name="Queens" lat="40.7498" lng="-73.7976"/>
        <location id="1156257074" name="Yingkou" lat="40.6653" lng="122.2297"/>
        <location id="1792783772" name="Adana" lat="37.0" lng="35.325"/>
        <location id="1360543171" name="Medan" lat="1741172.0" lng="98.6667"/>
        <location id="1156529682" name="Sanmenxia" lat="34.7736" lng="111.195"/>
        <location id="1356402812" name="Indore" lat="22.7206" lng="75.8472"/>
        <location id="1156847452" name="Ma'anshan" lat="31.7135" lng="118.3605"/>
        <location id="1156216904" name="Pingliang" lat="35.5412" lng="106.6819"/>
        <location id="1156180376" name="Quzhou" lat="28.9545" lng="118.8763"/>
        <location id="1031946365" name="Baku" lat="40.3667" lng="49.8352"/>
        <location id="1156522457" name="Gaoping" lat="30.7804" lng="106.13"/>
        <location id="1156142626" name="Huaibei" lat="33.9562" lng="116.789"/>
        <location id="1156081448" name="Xining" lat="36.6239" lng="101.7787"/>
        <location id="1156546342" name="Yan'an" lat="36.5952" lng="109.4863"/>
        <location id="1192752771" name="Havana" lat="23.1367" lng="-82.3589"/>
        <location id="1116260534" name="Phnom Penh" lat="1386768.0" lng="104.921"/>
        <location id="1392576294" name="Fukuoka" lat="33.5903" lng="130.4019"/>
        <location id="1706893395" name="Mogadishu" lat="2.0408" lng="45.3425"/>
        <location id="1156163376" name="Jincheng" lat="35.4906" lng="112.8483"/>
        <location id="1156858793" name="Lishui" lat="28.45" lng="119.9167"/>
        <location id="1156273372" name="Qingyang" lat="24.8141" lng="118.5792"/>
        <location id="1840020551" name="Riverside" lat="33.9381" lng="-117.3948"/>
        <location id="1840001592" name="Baltimore" lat="39.3051" lng="-76.6144"/>
        <location id="1704000623" name="Haiphong" lat="44428.0" lng="106.6667"/>
        <location id="1840020364" name="Las Vegas" lat="36.2333" lng="-115.2654"/>
        <location id="1156925734" name="Laibin" lat="23.7333" lng="109.2333"/>
        <location id="1586344001" name="Rawalpindi" lat="33.6007" lng="73.0679"/>
        <location id="1288181103" name="Kumasi" lat="1801895.0" lng="-1.6167"/>
        <location id="1840019941" name="Portland" lat="45.5372" lng="-122.65"/>
        <location id="1356705249" name="Vadodara" lat="44277.0" lng="73.2"/>
        <location id="1036178956" name="Perth" lat="-31.9522" lng="115.8589"/>
        <location id="1156756494" name="Puning" lat="23.2993" lng="116.1586"/>
        <location id="1840022220" name="San Antonio" lat="29.4658" lng="-98.5253"/>
        <location id="1156183327" name="Haikou" lat="44247.0" lng="110.32"/>
        <location id="1356692563" name="Vishakhapatnam" lat="17.7333" lng="83.3167"/>
        <location id="1792911843" name="Gaziantep" lat="37.0667" lng="37.3833"/>
        <location id="1112348503" name="Minsk" lat="53.9022" lng="27.5618"/>
        <location id="1840001651" name="St. Louis" lat="38.6358" lng="-90.2451"/>
        <location id="1466965925" name="Bamako" lat="1665112.0" lng="-7.9922"/>
        <location id="1218441993" name="Quito" lat="-0.2186" lng="-78.5097"/>
        <location id="1156066465" name="Pingxiang" lat="27.6333" lng="113.85"/>
        <location id="1156438670" name="Chongzuo" lat="22.4167" lng="107.3667"/>
        <location id="1792937570" name="Sanliurfa" lat="37.1583" lng="38.7917"/>
        <location id="1180172460" name="Kananga" lat="-5.897" lng="22.4488"/>
        <location id="1586851102" name="Peshawar" lat="34.0" lng="71.5"/>
        <location id="1392000195" name="Sapporo" lat="43.0621" lng="141.3544"/>
        <location id="1156393765" name="Jixi" lat="45.2937" lng="130.965"/>
        <location id="1862748204" name="Caracas" lat="44326.0" lng="-66.9333"/>
        <location id="1156141954" name="Fuxin" lat="42.0127" lng="121.6486"/>
        <location id="1826343963" name="Leeds" lat="53.7997" lng="-1.5492"/>
        <location id="1840021491" name="Sacramento" lat="38.5667" lng="-121.4683"/>
        <location id="1454145012" name="Blantyre" lat="-15.7861" lng="35.0058"/>
        <location id="1158061376" name="Tainan" lat="22.9833" lng="120.1833"/>
        <location id="1642414442" name="Bucharest" lat="44.4" lng="26.0833"/>
        <location id="1156760291" name="Wuwei" lat="37.9278" lng="102.6329"/>
        <location id="1356734039" name="Bhopal" lat="23.25" lng="77.4167"/>
        <location id="1076701712" name="Curitiba" lat="-25.4297" lng="-49.2719"/>
        <location id="1156898522" name="Xiping" lat="40.08" lng="113.3"/>
        <location id="1600057911" name="Asuncion" lat="-25.3" lng="-57.6333"/>
        <location id="1586619596" name="Saidu Sharif" lat="34.75" lng="72.3572"/>
        <location id="1040261752" name="Vienna" lat="48.2083" lng="16.3731"/>
        <location id="1760366651" name="Aleppo" lat="36.2" lng="37.15"/>
        <location id="1276041799" name="Hamburg" lat="53.55" lng="10.0"/>
        <location id="1404588252" name="Meru" lat="0.05" lng="37.65"/>
        <location id="1178340306" name="Brazzaville" lat="-4.2667" lng="15.2833"/>
        <location id="1840015099" name="Orlando" lat="28.4772" lng="-81.3369"/>
        <location id="1792520282" name="Mersin" lat="36.8" lng="34.6167"/>
        <location id="1398351701" name="Almaty" lat="43.25" lng="76.9"/>
        <location id="1170179113" name="Barranquilla" lat="35339.0" lng="-74.8"/>
        <location id="1392622735" name="Kyoto" lat="35.0111" lng="135.7669"/>
        <location id="1076607274" name="Manaus" lat="-3.1" lng="-60.0167"/>
        <location id="1156202749" name="Liaoyang" lat="41.2643" lng="123.1772"/>
        <location id="1156140738" name="Baiyin" lat="36.5448" lng="104.1766"/>
        <location id="1840021570" name="San Jose" lat="37.3019" lng="-121.8486"/>
        <location id="1616024847" name="Warsaw" lat="52.2167" lng="21.0333"/>
        <location id="1156672254" name="Shengli" lat="37.45" lng="118.4667"/>
        <location id="1180506234" name="Lubumbashi" lat="-11.6697" lng="27.4581"/>
        <location id="1760685964" name="Damascus" lat="33.5131" lng="36.2919"/>
        <location id="1156051957" name="Shuyangzha" lat="34.1299" lng="118.7734"/>
        <location id="1156805441" name="Shangqiu" lat="34.4504" lng="115.65"/>
        <location id="1364023865" name="Esfahan" lat="32.6447" lng="51.6675"/>
        <location id="1348611435" name="Budapest" lat="47.4983" lng="19.0408"/>
        <location id="1156339225" name="Heihe" lat="50.2458" lng="127.4886"/>
        <location id="1894157390" name="Lusaka" lat="-15.4167" lng="28.2833"/>
        <location id="1792536241" name="Diyarbakir" lat="37.9108" lng="40.2367"/>
        <location id="1356475483" name="Chinchvad" lat="18.6278" lng="73.8131"/>
        <location id="1156227167" name="Shuozhou" lat="39.3408" lng="112.4292"/>
        <location id="1076376829" name="Vitoria" lat="-20.324" lng="-40.366"/>
        <location id="1840000596" name="Cleveland" lat="41.4767" lng="-81.6804"/>
        <location id="1840001254" name="Pittsburgh" lat="40.4396" lng="-79.9762"/>
        <location id="1682169241" name="Mecca" lat="21.4225" lng="39.8261"/>
        <location id="1356821429" name="Patna" lat="25.61" lng="85.1414"/>
        <location id="1368194914" name="Mosul" lat="36.3667" lng="43.1167"/>
        <location id="1840019590" name="Austin" lat="30.3004" lng="-97.7522"/>
        <location id="1156025536" name="Sanzhou" lat="30.82" lng="108.4"/>
        <location id="1324568159" name="Conakry" lat="1166100.0" lng="-13.7122"/>
        <location id="1800406299" name="Kampala" lat="0.3136" lng="32.5811"/>
        <location id="1484003694" name="Ecatepec" lat="19.6097" lng="-99.06"/>
        <location id="1840003814" name="Cincinnati" lat="39.1413" lng="-84.5061"/>
        <location id="1360051337" name="Makassar" lat="-5.1331" lng="119.4136"/>
        <location id="1156245000" name="Yushan" lat="31.3867" lng="120.9766"/>
        <location id="1356929498" name="Ludhiana" lat="30.9083" lng="75.8486"/>
        <location id="1826292220" name="Newcastle" lat="55.0077" lng="-1.6578"/>
        <location id="1360962899" name="Depok" lat="-6.394" lng="106.8225"/>
        <location id="1158025380" name="Zhongli" lat="24.965" lng="121.2168"/>
        <location id="1840008535" name="Kansas City" lat="39.1239" lng="-94.5541"/>
        <location id="1504023252" name="Rabat" lat="34.0253" lng="-6.8361"/>
        <location id="1854029208" name="Ouagadougou" lat="611022.0" lng="-1.5353"/>
        <location id="1608906877" name="Davao" lat="7.0667" lng="125.6"/>
        <location id="1840034000" name="Manhattan" lat="40.7834" lng="-73.9662"/>
        <location id="1360745537" name="Semarang" lat="-6.9667" lng="110.4167"/>
        <location id="1156359072" name="Yinchuan" lat="38.4795" lng="106.2254"/>
        <location id="1586256291" name="Multan" lat="30.1978" lng="71.4711"/>
        <location id="1608897690" name="Caloocan City" lat="14.65" lng="120.9667"/>
        <location id="1716196799" name="Harare" lat="-17.8292" lng="31.0522"/>
        <location id="1643399240" name="Novosibirsk" lat="55.0333" lng="82.9167"/>
        <location id="1156883901" name="Chengtangcun" lat="35.0833" lng="117.15"/>
        <location id="1356187395" name="Agra" lat="27.18" lng="78.02"/>
        <location id="1364258511" name="Karaj" lat="35.8327" lng="50.9915"/>
        <location id="1840030084" name="Indianapolis" lat="39.7771" lng="-86.1458"/>
        <location id="1156038165" name="Jingdezhen" lat="29.2942" lng="117.2036"/>
        <location id="1484416394" name="Puebla" lat="19.0333" lng="-98.1833"/>
        <location id="1356172246" name="Kalyan" lat="19.2502" lng="73.1602"/>
        <location id="1356257289" name="Madurai" lat="2665420.0" lng="78.1194"/>
        <location id="1586400472" name="Gujranwala" lat="32.15" lng="74.1833"/>
        <location id="1156097909" name="Benxi" lat="41.292" lng="123.761"/>
        <location id="1356501259" name="Jamshedpur" lat="44430.0" lng="86.1833"/>
        <location id="1156722242" name="Zhuhai" lat="22.2769" lng="113.5678"/>
        <location id="1076137337" name="Recife" lat="-8.0539" lng="-34.8808"/>
        <location id="1840003760" name="Columbus" lat="39.9862" lng="-82.985"/>
        <location id="1364141756" name="Tabriz" lat="38.0833" lng="46.2833"/>
        <location id="1214985348" name="Santiago" lat="44335.0" lng="-70.67"/>
        <location id="1862072711" name="Maracaibo" lat="1619395.0" lng="-71.6333"/>
        <location id="1156421449" name="Beihai" lat="21.4667" lng="109.1"/>
        <location id="1156245904" name="Shuangyashan" lat="46.6388" lng="131.1545"/>
        <location id="1392978082" name="Kobe" lat="34.6913" lng="135.183"/>
        <location id="1840014557" name="Charlotte" lat="35.208" lng="-80.8304"/>
        <location id="1156817119" name="Yucheng" lat="29.9888" lng="103.0007"/>
        <location id="1156901538" name="Changshu" lat="31.65" lng="120.7333"/>
        <location id="1156173813" name="Ximeicun" lat="24.9633" lng="118.3811"/>
        <location id="1156545200" name="Jianguang" lat="28.1958" lng="115.7833"/>
        <location id="1410000087" name="Gwangju" lat="35.1667" lng="126.9167"/>
        <location id="1156046916" name="Xushan" lat="30.1697" lng="121.2665"/>
        <location id="1156165517" name="Guiping" lat="44309.0" lng="110.0833"/>
        <location id="1356562598" name="Nasik" lat="20.0" lng="73.7833"/>
        <location id="1076658221" name="Porto Alegre" lat="-30.0328" lng="-51.23"/>
        <location id="1156072884" name="Zhangjiajie" lat="29.1255" lng="110.4844"/>
        <location id="1862309871" name="Valencia" lat="10.1667" lng="-68.0"/>
        <location id="1840003871" name="Virginia Beach" lat="36.7335" lng="-76.0435"/>
        <location id="1410993875" name="Daejeon" lat="36.351" lng="127.385"/>
        <location id="1276692352" name="Munich" lat="48.1372" lng="1408316.0"/>
        <location id="1643582706" name="Yekaterinburg" lat="56.8356" lng="60.6128"/>
        <location id="1554435911" name="Auckland" lat="-36.85" lng="174.7833"/>
        <location id="1156057251" name="Yunfu" lat="22.9242" lng="112.0353"/>
        <location id="1156527426" name="Huangshan" lat="29.7132" lng="118.3151"/>
        <location id="1156796734" name="Huazhou" lat="32.6832" lng="112.079"/>
        <location id="1364432238" name="Shiraz" lat="29.61" lng="52.5425"/>
        <location id="1484811199" name="Leon de los Aldama" lat="21.1167" lng="-101.6833"/>
        <location id="1156114238" name="Pizhou" lat="34.3422" lng="118.0097"/>
        <location id="1360902897" name="Palembang" lat="-2.9833" lng="104.7644"/>
        <location id="1804588111" name="Kharkiv" lat="50.0" lng="36.2292"/>
        <location id="1392879600" name="Kawanakajima" lat="35.53" lng="139.705"/>
        <location id="1156944106" name="Lianjiang" lat="21.6146" lng="110.2794"/>
        <location id="1156131504" name="Chizhou" lat="30.6583" lng="117.4849"/>
        <location id="1156863840" name="Leizhou" lat="20.9147" lng="110.0806"/>
        <location id="1156817541" name="Guyuan" lat="36.008" lng="106.2782"/>
        <location id="1156993705" name="Rui'an" lat="27.778" lng="120.6526"/>
        <location id="1826141026" name="Birstall" lat="52.6736" lng="-1.12"/>
        <location id="1512035506" name="Muscat" lat="23.6139" lng="58.5922"/>
        <location id="1156114258" name="Hebi" lat="35.7497" lng="114.2887"/>
        <location id="1156060544" name="Jingling" lat="30.6667" lng="113.1667"/>
        <location id="1840033999" name="Bronx" lat="40.8501" lng="-73.8662"/>
        <location id="1528799905" name="The Hague" lat="52.08" lng="46478.0"/>
        <location id="1566679132" name="Owerri" lat="1071379.0" lng="7.0333"/>
        <location id="1784152993" name="Sharjah" lat="25.3575" lng="55.3919"/>
        <location id="1356013205" name="Faridabad" lat="28.4333" lng="77.3167"/>
        <location id="1496024767" name="Ulaanbaatar" lat="47.9203" lng="106.9172"/>
        <location id="1076034054" name="Goiania" lat="-16.6789" lng="-49.2539"/>
        <location id="1076646823" name="Belem" lat="-1.4558" lng="-48.5039"/>
        <location id="1792945815" name="Kayseri" lat="38.7333" lng="35.4833"/>
        <location id="1156900058" name="Yueqing" lat="28.1188" lng="120.9621"/>
        <location id="1688374696" name="Belgrade" lat="44.8167" lng="20.4667"/>
        <location id="1156157078" name="Pingdu" lat="36.7833" lng="119.9556"/>
        <location id="1356840670" name="Aurangabad" lat="19.88" lng="75.32"/>
        <location id="1156592042" name="Yutan" lat="28.3147" lng="112.554"/>
        <location id="1156052493" name="Wenling" lat="28.3797" lng="121.3718"/>
        <location id="1586306717" name="Islamabad" lat="33.6989" lng="73.0369"/>
        <location id="1840003046" name="Milwaukee" lat="43.0642" lng="-87.9673"/>
        <location id="1380724377" name="Milan" lat="45.4669" lng="43709.0"/>
        <location id="1100762037" name="Sofia" lat="42.6975" lng="23.3241"/>
        <location id="1036538171" name="Adelaide" lat="-34.9289" lng="138.6011"/>
        <location id="1792169057" name="Samsun" lat="41.2867" lng="36.33"/>
        <location id="1356317190" name="Rajkot" lat="22.2969" lng="70.7984"/>
        <location id="1050667339" name="Khulna" lat="22.8167" lng="89.55"/>
        <location id="1032803249" name="Cordoba" lat="-31.4167" lng="-64.1833"/>
        <location id="1076730420" name="Guarulhos" lat="-23.4667" lng="-46.5333"/>
        <location id="1484840083" name="Juarez" lat="31.7386" lng="-106.487"/>
        <location id="1203744823" name="Prague" lat="50.0833" lng="14.4167"/>
        <location id="1858107000" name="Montevideo" lat="-34.8667" lng="-56.1667"/>
        <location id="1180399586" name="Mbuji-Mayi" lat="-6.1209" lng="23.5967"/>
        <location id="1156893569" name="Fuqing" lat="25.7232" lng="119.3735"/>
        <location id="1156761230" name="Xintai" lat="35.91" lng="117.78"/>
        <location id="1634459660" name="Doha" lat="44280.0" lng="51.5333"/>
        <location id="1392017719" name="Saitama" lat="35.8617" lng="139.6453"/>
        <location id="1392373695" name="Hiroshima" lat="34.3853" lng="132.4553"/>
        <location id="1356390476" name="Meerut" lat="28.99" lng="77.7"/>
        <location id="1156326773" name="Yushu" lat="44.8249" lng="126.5451"/>
        <location id="1156122888" name="Rongcheng" lat="26.2312" lng="104.0966"/>
        <location id="1156157844" name="Yangquan" lat="37.8576" lng="113.5762"/>
        <location id="1156052713" name="Haicheng" lat="40.8523" lng="122.7474"/>
        <location id="1156785303" name="Gaozhou" lat="21.9392" lng="110.8461"/>
        <location id="1156301061" name="Yingtan" lat="28.2333" lng="117.0"/>
        <location id="1156662372" name="Huaiyin" lat="33.58" lng="119.03"/>
        <location id="1156139322" name="Wuzhong" lat="37.9874" lng="106.1919"/>
        <location id="1356115460" name="Jabalpur" lat="23.1667" lng="79.9333"/>
        <location id="1356681152" name="Thane" lat="19.18" lng="72.9633"/>
        <location id="1156180353" name="Zhangye" lat="38.9355" lng="100.4553"/>
        <location id="1156323529" name="Rucheng" lat="32.3852" lng="120.5634"/>
        <location id="1643012126" name="Nizhniy Novgorod" lat="56.3269" lng="44.0075"/>
        <location id="1340762485" name="Comayaguela" lat="14.0833" lng="-87.2167"/>
        <location id="1156203000" name="Yangshe" lat="31.8775" lng="120.5512"/>
        <location id="1156668366" name="Shaoyang" lat="32.9387" lng="119.8404"/>
        <location id="1356103392" name="Dhanbad" lat="23.7928" lng="86.435"/>
        <location id="1156757274" name="Yichun" lat="47.7235" lng="128.8893"/>
        <location id="1156207332" name="Laiwu" lat="36.1833" lng="117.6667"/>
        <location id="1643101260" name="Kazan" lat="55.7908" lng="49.1144"/>
        <location id="1156828380" name="Dayan" lat="26.8808" lng="100.2208"/>
        <location id="1410679777" name="Suwon" lat="37.2858" lng="127.01"/>
        <location id="1156033234" name="Jiangyin" lat="31.9087" lng="120.2653"/>
        <location id="1156841802" name="Yongcheng" lat="33.9317" lng="116.4459"/>
        <location id="1124690423" name="Calgary" lat="51.05" lng="-114.0667"/>
        <location id="1704783472" name="Can Tho" lat="10.0333" lng="105.7833"/>
        <location id="1566342270" name="Abuja" lat="9.0556" lng="1101024.0"/>
        <location id="1156078044" name="Yiwu" lat="29.3081" lng="120.0698"/>
        <location id="1104468217" name="Mandalay" lat="21.9769" lng="96.0869"/>
        <location id="1156137209" name="Beidao" lat="34.6" lng="105.92"/>
        <location id="1368714645" name="Al Basrah" lat="30.4889" lng="47.81"/>
        <location id="1156070389" name="Shuangshui" lat="26.5944" lng="104.8333"/>
        <location id="1724991838" name="Sevilla" lat="37.3828" lng="-5.9731"/>
        <location id="1076575691" name="Vila Velha" lat="97581.0" lng="-51.2167"/>
        <location id="1356718332" name="Allahabad" lat="25.455" lng="81.84"/>
        <location id="1356145782" name="Varanasi" lat="25.3189" lng="83.0128"/>
        <location id="1788742103" name="Tunis" lat="36.8008" lng="43374.0"/>
        <location id="1643224011" name="Chelyabinsk" lat="55.15" lng="61.4"/>
        <location id="1404512373" name="Mombasa" lat="-4.05" lng="39.6667"/>
        <location id="1840003289" name="Providence" lat="41.823" lng="-71.4187"/>
        <location id="1364701633" name="Qom" lat="34.6461" lng="50.8789"/>
        <location id="1566540296" name="Maiduguri" lat="2349911.0" lng="13.15"/>
        <location id="1508074843" name="Maputo" lat="-25.9153" lng="32.5764"/>
        <location id="1032770677" name="Rosario" lat="-32.9575" lng="-60.6394"/>
        <location id="1566080151" name="Benin City" lat="466203.0" lng="1550577.0"/>
        <location id="1156138735" name="Xinyu" lat="27.795" lng="114.9242"/>
        <location id="1364350188" name="Ahvaz" lat="31.3203" lng="48.6692"/>
        <location id="1372595407" name="Dublin" lat="53.3425" lng="-6.2658"/>
        <location id="1840015031" name="Jacksonville" lat="30.3322" lng="-81.6749"/>
        <location id="1682345785" name="Medina" lat="24.4667" lng="39.6"/>
        <location id="1356442950" name="Srinagar" lat="34.0911" lng="74.8061"/>
        <location id="1643360863" name="Omsk" lat="54.9667" lng="73.3833"/>
        <location id="1156282637" name="Huazhou" lat="21.654" lng="110.6294"/>
        <location id="1360503809" name="Cilacap" lat="-7.7167" lng="109.017"/>
        <location id="1156216927" name="Xiantao" lat="30.3833" lng="113.4"/>
        <location id="1360243491" name="Bandar Lampung" lat="-5.4294" lng="105.2625"/>
        <location id="1643205757" name="Samara" lat="53.1833" lng="50.1167"/>
        <location id="1156249346" name="Guankou" lat="28.1417" lng="113.625"/>
        <location id="1410134602" name="Ulsan" lat="35.55" lng="129.3167"/>
        <location id="1156656582" name="Dingzhou" lat="38.5158" lng="114.9845"/>
        <location id="1076145766" name="Campinas" lat="-22.9009" lng="-47.0573"/>
        <location id="1156490109" name="Lianyuan" lat="27.6961" lng="111.6659"/>
        <location id="1156102432" name="Rongcheng" lat="29.8239" lng="112.9019"/>
        <location id="1156441554" name="Kaiyuan" lat="36.0656" lng="113.8153"/>
        <location id="1104838105" name="Nay Pyi Taw" lat="19.8028" lng="96.1583"/>
        <location id="1686604760" name="Dakar" lat="14.7319" lng="-17.4572"/>
        <location id="1156504227" name="Zhuji" lat="29.7169" lng="120.2314"/>
        <location id="1484198680" name="Zapopan" lat="20.7167" lng="-103.4"/>
        <location id="1156057789" name="Leiyang" lat="26.4179" lng="112.8457"/>
        <location id="1156901342" name="Dadukou" lat="26.5849" lng="101.7149"/>
        <location id="1586556108" name="Quetta" lat="30.192" lng="67.007"/>
        <location id="1356926507" name="Amritsar" lat="31.6167" lng="74.85"/>
        <location id="1604422141" name="Callao" lat="-12.0611" lng="-77.1333"/>
        <location id="1356076391" name="Aligarh" lat="27.88" lng="78.08"/>
        <location id="1156748426" name="Yingchuan" lat="34.1511" lng="113.4733"/>
        <location id="1340344059" name="Tegucigalpa" lat="14.0942" lng="-87.2067"/>
        <location id="1484016661" name="Ciudad Nezahualcoyotl" lat="19.41" lng="-99.03"/>
        <location id="1434201852" name="Tripoli" lat="32.8752" lng="13.1875"/>
        <location id="1643013518" name="Rostov" lat="47.2333" lng="39.7167"/>
        <location id="1484074285" name="Nezahualcoyotl" lat="44305.0" lng="-98.9889"/>
        <location id="1356763571" name="Bhiwandi" lat="44274.0" lng="73.0667"/>
        <location id="1156200283" name="Zhoushan" lat="30.0162" lng="122.0988"/>
        <location id="1268203191" name="Tbilisi" lat="41.7225" lng="44.7925"/>
        <location id="1643722928" name="Ufa" lat="54.7333" lng="55.9667"/>
        <location id="1504861997" name="Fes" lat="34.0433" lng="-5.0033"/>
        <location id="1704863046" name="Bien Hoa" lat="2803511.0" lng="106.8426"/>
        <location id="1484788702" name="Mexicali" lat="32.6633" lng="-115.4678"/>
        <location id="1356363967" name="Gwalior" lat="26.215" lng="78.1931"/>
        <location id="1156255711" name="Ankang" lat="32.6877" lng="109.0235"/>
        <location id="1566683694" name="Ikare" lat="1243469.0" lng="27881.0"/>
        <location id="1156541759" name="Hegang" lat="47.3139" lng="130.2775"/>
        <location id="1840021383" name="Salt Lake City" lat="40.7777" lng="-111.9306"/>
        <location id="1356071083" name="Bhilai" lat="21.2167" lng="81.4333"/>
        <location id="1156221984" name="Yuyao" lat="30.0372" lng="121.1546"/>
        <location id="1148708596" name="N'Djamena" lat="44512.0" lng="44331.0"/>
        <location id="1156149248" name="Hanchuan" lat="30.652" lng="113.8274"/>
        <location id="1156696810" name="Gongzhuling" lat="43.5036" lng="124.8088"/>
        <location id="1208763942" name="Copenhagen" lat="55.6786" lng="1364517.0"/>
        <location id="1400221568" name="Irbid" lat="32.5556" lng="35.85"/>
        <location id="1356986516" name="Haora" lat="22.59" lng="88.31"/>
        <location id="1276015998" name="Cologne" lat="50.9422" lng="2804485.0"/>
        <location id="1643544975" name="Krasnoyarsk" lat="56.0167" lng="92.8667"/>
        <location id="1156292419" name="Yicheng" lat="31.3697" lng="119.8239"/>
        <location id="1156935002" name="Mizhou" lat="36.0" lng="119.4167"/>
        <location id="1840036155" name="Nashville" lat="36.1715" lng="-86.7843"/>
        <location id="1051074169" name="Yerevan" lat="40.1814" lng="44.5144"/>
        <location id="1356110588" name="Ranchi" lat="23.3556" lng="85.3347"/>
        <location id="1398516045" name="Nur-Sultan" lat="51.1333" lng="71.4333"/>
        <location id="1478414984" name="Nouakchott" lat="18.0783" lng="-15.9744"/>
        <location id="1710271883" name="Vereeniging" lat="-26.6736" lng="27.9319"/>
        <location id="1840001698" name="Richmond" lat="37.5295" lng="-77.4756"/>
        <location id="1076819308" name="Sao Luis" lat="-2.53" lng="-44.3028"/>
        <location id="1340568412" name="San Pedro Sula" lat="44331.0" lng="-88.0333"/>
        <location id="1156331200" name="Taixing" lat="32.1724" lng="120.0142"/>
        <location id="1840015457" name="Memphis" lat="35.1046" lng="-89.9773"/>
        <location id="1410511255" name="Goyang" lat="37.6564" lng="126.835"/>
        <location id="1356807575" name="Bezwada" lat="16.5167" lng="80.6167"/>
        <location id="1124290735" name="Edmonton" lat="53.5344" lng="-113.4903"/>
        <location id="1156155575" name="Xishan" lat="27.6609" lng="113.4946"/>
        <location id="1862860739" name="Barquisimeto" lat="10.0678" lng="-69.3467"/>
        <location id="1392457903" name="Sendai" lat="38.2683" lng="140.8694"/>
        <location id="1643811064" name="Voronezh" lat="51.6717" lng="39.2106"/>
        <location id="1643294442" name="Perm" lat="58.0139" lng="56.2489"/>
        <location id="1410592618" name="Changwon" lat="35.2281" lng="128.6811"/>
        <location id="1156956616" name="Zhongwei" lat="37.5139" lng="105.1884"/>
        <location id="1156787809" name="Shouguang" lat="36.8833" lng="118.7333"/>
        <location id="1360771925" name="Bogor" lat="-6.6" lng="106.8"/>
        <location id="1840014497" name="Raleigh" lat="35.8325" lng="-78.6435"/>
        <location id="1170886102" name="Cartagena" lat="853482.0" lng="-75.5253"/>
        <location id="1356739179" name="Chandigarh" lat="30.7353" lng="76.7911"/>
        <location id="1417191971" name="Bishkek" lat="42.8667" lng="74.5667"/>
        <location id="1528355309" name="Amsterdam" lat="52.35" lng="2653944.0"/>
        <location id="1508768577" name="Matola" lat="-25.9667" lng="32.4667"/>
        <location id="1566373448" name="Ogbomoso" lat="8.1333" lng="45748.0"/>
        <location id="1795049992" name="Ashgabat" lat="37.95" lng="58.3833"/>
        <location id="1156414637" name="E'zhou" lat="30.3972" lng="114.8842"/>
        <location id="1076440479" name="Maceio" lat="-9.6658" lng="-35.735"/>
        <location id="1562932886" name="Niamey" lat="13.5086" lng="2.1111"/>
        <location id="1558296252" name="Managua" lat="42339.0" lng="-86.2667"/>
        <location id="1360893799" name="Patam" lat="1.0678" lng="104.0167"/>
        <location id="1792519395" name="Tekirdag" lat="40.9833" lng="27.5167"/>
        <location id="1156451663" name="Linhai" lat="28.8523" lng="121.1409"/>
        <location id="1818909612" name="Shubra al Khaymah" lat="30.1286" lng="31.2422"/>
        <location id="1430477826" name="Monrovia" lat="440635.0" lng="-10.8047"/>
        <location id="1156476417" name="Wafangdian" lat="39.6271" lng="121.9972"/>
        <location id="1156631720" name="Zhongxiang" lat="31.169" lng="112.5853"/>
        <location id="1398791401" name="Shymkent" lat="42.3" lng="69.6"/>
        <location id="1840001839" name="New Orleans" lat="30.0687" lng="-89.9288"/>
        <location id="1643577201" name="Volgograd" lat="48.7" lng="44.4833"/>
        <location id="1332401940" name="Port-au-Prince" lat="18.5425" lng="-72.3386"/>
        <location id="1356779323" name="Mysore" lat="433514.0" lng="76.6531"/>
        <location id="1804178102" name="Odesa" lat="46.4775" lng="30.7326"/>
        <location id="1524589448" name="Kathmandu" lat="27.7167" lng="85.3667"/>
        <location id="1356374983" name="Raipur" lat="21.2379" lng="81.6337"/>
        <location id="1250774553" name="Nice" lat="43.7034" lng="278863.0"/>
        <location id="1604723954" name="Arequipa" lat="-16.3988" lng="-71.5369"/>
        <location id="1566070649" name="Port Harcourt" lat="27485.0" lng="7.0"/>
        <location id="1528892850" name="Rotterdam" lat="51.92" lng="17624.0"/>
        <location id="1840030815" name="Louisville" lat="38.1663" lng="-85.6485"/>
        <location id="1156197076" name="Zaoyang" lat="32.1287" lng="112.7581"/>
        <location id="1156462734" name="Shuizhai" lat="33.4433" lng="114.8994"/>
        <location id="1356820310" name="Kota" lat="25.18" lng="75.83"/>
        <location id="1784176710" name="Abu Dhabi" lat="24.4781" lng="54.3686"/>
        <location id="1752425602" name="Stockholm" lat="59.3294" lng="18.0686"/>
        <location id="1124399363" name="Ottawa" lat="45.4247" lng="-75.695"/>
        <location id="1232791236" name="Asmara" lat="15.3333" lng="38.9167"/>
        <location id="1694085071" name="Freetown" lat="1071471.0" lng="-13.2331"/>
        <location id="1376261644" name="Jerusalem" lat="31.7833" lng="35.2167"/>
        <location id="1591672475" name="Panama City" lat="9.0" lng="-79.5"/>
        <location id="1768409132" name="Lome" lat="6.1319" lng="119801.0"/>
        <location id="1266952885" name="Libreville" lat="0.3901" lng="965947.0"/>
        <location id="1191233290" name="Zagreb" lat="45.8" lng="15.95"/>
        <location id="1762930616" name="Dushanbe" lat="38.5731" lng="68.7864"/>
        <location id="1454688499" name="Lilongwe" lat="-13.9833" lng="33.7833"/>
        <location id="1204955174" name="Cotonou" lat="44292.0" lng="19025.0"/>
        <location id="1418732714" name="Vientiane" lat="17.9667" lng="102.6"/>
        <location id="1144251314" name="Colombo" lat="2654370.0" lng="79.8333"/>
        <location id="1646923541" name="Kigali" lat="-1.9536" lng="30.0606"/>
        <location id="1710176249" name="Pretoria" lat="-25.7464" lng="28.1881"/>
        <location id="1140080881" name="Bangui" lat="669217.0" lng="18.5628"/>
        <location id="1124224963" name="Winnipeg" lat="49.8844" lng="-97.1464"/>
        <location id="1124823933" name="Quebec City" lat="46.8139" lng="-71.2081"/>
        <location id="1428586192" name="Riga" lat="56.9475" lng="24.1069"/>
        <location id="1578324706" name="Oslo" lat="59.9111" lng="2055860.0"/>
        <location id="1498011437" name="Chisinau" lat="47.0056" lng="28.8575"/>
        <location id="1300715560" name="Athens" lat="37.9794" lng="23.7161"/>
        <location id="1108101689" name="Bujumbura" lat="-3.3825" lng="29.3611"/>
        <location id="1246177997" name="Helsinki" lat="60.1756" lng="24.9342"/>
        <location id="1807600615" name="Skopje" lat="41.9833" lng="21.4333"/>
        <location id="1414102075" name="Kuwait City" lat="29.375" lng="47.98"/>
        <location id="1388709177" name="Kingston" lat="17.9714" lng="-76.7931"/>
        <location id="1440887149" name="Vilnius" lat="54.6833" lng="25.2833"/>
        <location id="1222647454" name="San Salvador" lat="13.6989" lng="-89.1914"/>
        <location id="1262028958" name="Djibouti" lat="11.595" lng="43.1481"/>
        <location id="1620619017" name="Lisbon" lat="38.7452" lng="-9.1604"/>
        <location id="1124158530" name="Kitchener" lat="43.4186" lng="-80.4728"/>
        <location id="1233260021" name="Tallinn" lat="59.4372" lng="24.745"/>
        <location id="1710680650" name="Cape Town" lat="-33.925" lng="18.425"/>
        <location id="1703195001" name="Bratislava" lat="48.1447" lng="17.1128"/>
        <location id="1008162156" name="Tirana" lat="41.33" lng="19.82"/>
        <location id="1036142029" name="Canberra" lat="-35.2931" lng="149.1269"/>
        <location id="1554772152" name="Wellington" lat="-41.2889" lng="174.7772"/>
        <location id="1422847713" name="Beirut" lat="33.8869" lng="35.5131"/>
        <location id="1834288497" name="Dodoma" lat="-6.25" lng="35.75"/>
        <location id="1124130981" name="Halifax" lat="44.6475" lng="-63.5906"/>
        <location id="1624168850" name="Bissau" lat="2444510.0" lng="-15.5956"/>
        <location id="1728444337" name="Juba" lat="31138.0" lng="31.6"/>
        <location id="1598685395" name="Port Moresby" lat="-9.4789" lng="147.1494"/>
        <location id="1384683557" name="Yamoussoukro" lat="2286937.0" lng="-5.2742"/>
        <location id="1124147219" name="Victoria" lat="48.4283" lng="-123.3647"/>
        <location id="1426977668" name="Maseru" lat="-29.31" lng="27.48"/>
        <location id="1196944155" name="Nicosia" lat="35.1725" lng="33.365"/>
        <location id="1516802003" name="Windhoek" lat="-22.57" lng="17.0836"/>
        <location id="1204172060" name="Porto-Novo" lat="1071410.0" lng="1558523.0"/>
        <location id="1068823873" name="Sucre" lat="-19.0431" lng="-65.2592"/>
        <location id="1188749877" name="San Jose" lat="2715093.0" lng="-84.0833"/>
        <location id="1705917455" name="Ljubljana" lat="46.05" lng="14.5167"/>
        <location id="1070966777" name="Sarajevo" lat="43.8667" lng="18.4167"/>
        <location id="1044318561" name="Nassau" lat="25.0667" lng="-77.3333"/>
        <location id="1710495933" name="Bloemfontein" lat="-29.1" lng="26.2167"/>
        <location id="1072756768" name="Gaborone" lat="-24.6569" lng="25.9086"/>
        <location id="1740518660" name="Paramaribo" lat="2471718.0" lng="-55.1667"/>
        <location id="1626308942" name="Dili" lat="-8.5586" lng="125.5736"/>
        <location id="1901760068" name="Pristina" lat="42.6667" lng="21.1667"/>
        <location id="1328160906" name="Georgetown" lat="2167137.0" lng="-58.1667"/>
        <location id="1226861333" name="Malabo" lat="2053089.0" lng="2132135.0"/>
        <location id="1056469830" name="Brussels" lat="50.8467" lng="590689.0"/>
        <location id="1462441685" name="Male" lat="4.175" lng="73.5083"/>
        <location id="1499454516" name="Podgorica" lat="42.4397" lng="19.2661"/>
        <location id="1048989486" name="Manama" lat="26.2167" lng="50.5831"/>
        <location id="1480131261" name="Port Louis" lat="-20.1667" lng="57.5"/>
        <location id="1356215164" name="New Delhi" lat="44405.0" lng="77.2"/>
        <location id="1756374318" name="Bern" lat="46.948" lng="940318.0"/>
        <location id="1352327190" name="Reykjavik" lat="64.1475" lng="-21.935"/>
        <location id="1132398770" name="Praia" lat="14.9177" lng="-23.5092"/>
        <location id="1442262731" name="Luxembourg" lat="49.6106" lng="6.1328"/>
        <location id="1144239330" name="Sri Jayewardenepura Kotte" lat="44445.0" lng="79.9164"/>
        <location id="1052274244" name="Bridgetown" lat="13.0975" lng="-59.6167"/>
        <location id="1174793581" name="Moroni" lat="-11.7036" lng="43.2536"/>
        <location id="1064010361" name="Thimphu" lat="27.4833" lng="89.6333"/>
        <location id="1748811945" name="Mbabane" lat="-26.3167" lng="31.1333"/>
        <location id="1090737486" name="Honiara" lat="-9.4333" lng="159.95"/>
        <location id="1242615095" name="Suva" lat="-18.1333" lng="178.4333"/>
        <location id="1662922505" name="Castries" lat="14.0167" lng="-60.9833"/>
        <location id="1678301324" name="Sao Tome" lat="0.3333" lng="1984516.0"/>
        <location id="1548805075" name="Port-Vila" lat="-17.75" lng="168.3"/>
        <location id="1096465895" name="Bandar Seri Begawan" lat="2654309.0" lng="114.9167"/>
        <location id="1492854256" name="Monaco" lat="43.7396" lng="792395.0"/>
        <location id="1108778000" name="Gitega" lat="-3.4264" lng="29.9306"/>
        <location id="1780670676" name="Port of Spain" lat="1741386.0" lng="-61.5167"/>
        <location id="1882489296" name="Apia" lat="-13.8333" lng="-171.8333"/>
        <location id="1438317747" name="Vaduz" lat="47.1415" lng="1211024.0"/>
        <location id="1270723713" name="Banjul" lat="13.4531" lng="-16.5775"/>
        <location id="1296152641" name="Tarawa" lat="541292.0" lng="173.0176"/>
        <location id="1690193579" name="Victoria" lat="-4.6236" lng="55.4544"/>
        <location id="1584000000" name="Majuro" lat="7.1167" lng="171.3667"/>
        <location id="1670376659" name="Kingstown" lat="13.1667" lng="-61.2333"/>
        <location id="1776737461" name="Nuku`alofa" lat="-21.1347" lng="-175.2083"/>
        <location id="1028912067" name="Saint John's" lat="17.1211" lng="-61.8447"/>
        <location id="1020828846" name="Andorra la Vella" lat="42.5" lng="44317.0"/>
        <location id="1084586375" name="Belmopan" lat="17.25" lng="-88.7675"/>
        <location id="1212060440" name="Roseau" lat="44270.0" lng="-61.3833"/>
        <location id="1659198919" name="Basseterre" lat="17.2983" lng="-62.7342"/>
        <location id="1016976740" name="Pago Pago" lat="-14.274" lng="-170.7046"/>
        <location id="1470574399" name="Valletta" lat="35.8978" lng="14.5125"/>
        <location id="1583008885" name="Palikir" lat="2658388.0" lng="158.185"/>
        <location id="1798251391" name="Funafuti" lat="-8.5167" lng="179.2167"/>
        <location id="1748963140" name="Lobamba" lat="-26.4167" lng="31.1667"/>
        <location id="1308891766" name="Saint George's" lat="12.0444" lng="-61.7417"/>
        <location id="1674741947" name="San Marino" lat="43.932" lng="944124.0"/>
        <location id="1934000006" name="Al Quds" lat="31.7764" lng="35.2269"/>
        <location id="1580556972" name="Capitol Hill" lat="15.2137" lng="145.7546"/>
        <location id="1316937540" name="Hagta" lat="13.4745" lng="144.7504"/>
        <location id="1585525081" name="Ngerulmud" lat="1134626.0" lng="134.6242"/>
        <location id="1356698199" name="Bareilly" lat="28.364" lng="79.415"/>
        <location id="1704966442" name="Quang Ha" lat="44363.0" lng="108.25"/>
        <location id="1392129541" name="Kitaku" lat="33.8704" lng="130.82"/>
        <location id="1356727084" name="Jodhpur" lat="26.2918" lng="73.0168"/>
        <location id="1156913008" name="Xingcheng" lat="24.1681" lng="115.6669"/>
        <location id="1156536785" name="Dongtai" lat="32.8534" lng="120.3037"/>
        <location id="1076050637" name="Joinvile" lat="-26.32" lng="-48.8399"/>
        <location id="1156012356" name="Yingcheng" lat="24.1876" lng="113.4042"/>
        <location id="1804152933" name="Dnipro" lat="48.45" lng="34.9833"/>
        <location id="1826836462" name="Glasgow" lat="55.8609" lng="-4.2514"/>
        <location id="1392107144" name="Chiba" lat="35.6" lng="140.1"/>
        <location id="1156578273" name="Danyang" lat="31.9948" lng="119.575"/>
        <location id="1076336975" name="Natal" lat="-6.9838" lng="-60.2699"/>
        <location id="1380646673" name="Naples" lat="40.8333" lng="14.25"/>
        <location id="1156601489" name="Zhaodong" lat="46.0635" lng="125.9773"/>
        <location id="1156960560" name="Xibeijie" lat="39.737" lng="98.5049"/>
        <location id="1368344172" name="Kirkuk" lat="35.4667" lng="44.4"/>
        <location id="1156485081" name="Huilong" lat="31.8131" lng="121.6574"/>
        <location id="1410160862" name="Tongjin" lat="37.2361" lng="127.2011"/>
        <location id="1840020428" name="Oklahoma City" lat="35.4676" lng="-97.5136"/>
        <location id="1250258110" name="Toulouse" lat="43.6045" lng="1.444"/>
        <location id="1792161179" name="Denizli" lat="37.7731" lng="29.0878"/>
        <location id="1356960169" name="Dispur" lat="26.15" lng="91.77"/>
        <location id="1356999503" name="Coimbatore" lat="11.0" lng="76.9667"/>
        <location id="1156138895" name="Luocheng" lat="22.7645" lng="111.5745"/>
        <location id="1356593800" name="Guwahati" lat="26.1667" lng="91.7667"/>
        <location id="1156202451" name="Shima" lat="24.4475" lng="117.8118"/>
        <location id="1410622472" name="Songnam" lat="37.4386" lng="127.1378"/>
        <location id="1356314385" name="Solapur" lat="17.6833" lng="75.9167"/>
        <location id="1504861504" name="Tangier" lat="35.7847" lng="-5.8125"/>
        <location id="1156592047" name="Anqiu" lat="36.3619" lng="119.1072"/>
        <location id="1156303834" name="Feicheng" lat="36.186" lng="116.772"/>
        <location id="1156105450" name="Taishan" lat="22.2486" lng="112.785"/>
        <location id="1156023073" name="Meishan" lat="34.1736" lng="112.839"/>
        <location id="1180478201" name="Kisangani" lat="0.5153" lng="25.1911"/>
        <location id="1729318628" name="Khartoum North" lat="15.6333" lng="32.6333"/>
        <location id="1484666646" name="Aguascalientes" lat="21.876" lng="-102.296"/>
        <location id="1504172585" name="Marrakech" lat="31.6295" lng="-7.9811"/>
        <location id="1156911678" name="Nada" lat="44335.0" lng="109.5833"/>
        <location id="1804963805" name="Donetsk" lat="48.0089" lng="37.8042"/>
        <location id="1156875484" name="Taihecun" lat="45.768" lng="131.0063"/>
        <location id="1156198103" name="Wuchuan" lat="21.4571" lng="110.7659"/>
        <location id="1604613706" name="Trujillo" lat="-8.1119" lng="-79.0289"/>
        <location id="1608136151" name="Cebu City" lat="44265.0" lng="123.9"/>
        <location id="1156281983" name="Taihe" lat="30.8706" lng="105.3784"/>
        <location id="1076784718" name="Olinda" lat="-8.0" lng="-34.85"/>
        <location id="1840004836" name="Bridgeport" lat="41.1918" lng="-73.1953"/>
        <location id="1356884472" name="Trichinopoly" lat="2326505.0" lng="78.6928"/>
        <location id="1156236053" name="Xin'an" lat="34.3662" lng="118.3369"/>
        <location id="1360900986" name="Padang" lat="-0.9556" lng="100.3606"/>
        <location id="1156874864" name="Qingzhou" lat="36.6967" lng="118.4797"/>
        <location id="1840000386" name="Buffalo" lat="42.9016" lng="-78.8487"/>
        <location id="1156936644" name="Xinyi" lat="22.3559" lng="110.9369"/>
        <location id="1156302762" name="Lichuan" lat="30.2965" lng="108.9378"/>
        <location id="1156255811" name="Daye" lat="30.1003" lng="114.9699"/>
        <location id="1840020696" name="Fort Worth" lat="32.7811" lng="-97.3473"/>
        <location id="1156410076" name="Zhuanghe" lat="39.6896" lng="122.9664"/>
        <location id="1840004773" name="Hartford" lat="41.7661" lng="-72.6834"/>
        <location id="1682452296" name="Ad Dammam" lat="26.4333" lng="50.1"/>
        <location id="1410428222" name="Bucheon" lat="37.4989" lng="126.7831"/>
        <location id="1156369972" name="Lhasa" lat="29.65" lng="91.1"/>
        <location id="1760013934" name="Homs" lat="34.7333" lng="36.7167"/>
        <location id="1156752602" name="Jiaozhou" lat="36.2481" lng="119.9625"/>
        <location id="1484396779" name="Merida" lat="20.97" lng="-89.62"/>
        <location id="1156202014" name="Dengtalu" lat="36.08" lng="114.35"/>
        <location id="1566287704" name="Zaria" lat="11.0667" lng="44384.0"/>
        <location id="1356102365" name="Hubli" lat="15.36" lng="75.125"/>
        <location id="1566979497" name="Abeokuta" lat="42186.0" lng="12844.0"/>
        <location id="1840022101" name="Tucson" lat="32.1545" lng="-110.8782"/>
        <location id="1643438227" name="Krasnodar" lat="45.0333" lng="38.9833"/>
        <location id="1076697777" name="Natal" lat="-5.795" lng="-35.2089"/>
        <location id="1076221386" name="Novo Hamburgo" lat="-29.7096" lng="-51.14"/>
        <location id="1484335603" name="Chihuahua" lat="28.6353" lng="-106.0889"/>
        <location id="1458509635" name="Klang" lat="3.0333" lng="101.45"/>
        <location id="1380244627" name="Turin" lat="45.0667" lng="44384.0"/>
        <location id="1566773679" name="Jos" lat="2715093.0" lng="2532441.0"/>
        <location id="1156207330" name="Laiyang" lat="36.9758" lng="120.7136"/>
        <location id="1356494816" name="Jalandhar" lat="31.3256" lng="75.5792"/>
        <location id="1076660445" name="Campo Grande" lat="-20.4686" lng="-54.6222"/>
        <location id="1504989034" name="Sale" lat="34.05" lng="-6.8167"/>
        <location id="1862647790" name="Barinas" lat="1619334.0" lng="-70.2167"/>
        <location id="1250774071" name="Marseille" lat="43.2964" lng="13636.0"/>
        <location id="1156686574" name="Kaifeng Chengguanzhen" lat="34.85" lng="114.35"/>
        <location id="1792933981" name="Eskisehir" lat="39.7767" lng="30.5206"/>
        <location id="1156673331" name="Gaomi" lat="36.3833" lng="119.75"/>
        <location id="1458423505" name="Ipoh" lat="44351.0" lng="101.07"/>
        <location id="1156332302" name="Hai'an" lat="32.532" lng="120.4604"/>
        <location id="1826558678" name="Liverpool" lat="53.4" lng="-2.9833"/>
        <location id="1608189351" name="Zamboanga City" lat="2654370.0" lng="122.0833"/>
        <location id="1012126319" name="Oran" lat="35.6969" lng="-0.6331"/>
        <location id="1826602892" name="Southampton" lat="50.9" lng="-1.4"/>
        <location id="1156194600" name="Weichanglu" lat="37.1792" lng="119.9333"/>
        <location id="1360422679" name="Pekanbaru" lat="0.5333" lng="101.45"/>
        <location id="1826964096" name="Portsmouth" lat="50.8058" lng="-1.0872"/>
        <location id="1156705082" name="Leping" lat="28.9632" lng="117.1203"/>
        <location id="1368578192" name="Erbil" lat="36.1911" lng="44.0094"/>
        <location id="1364535690" name="Kermanshah" lat="34.3167" lng="47.0686"/>
        <location id="1156804488" name="Hailun" lat="47.4585" lng="126.9632"/>
        <location id="1156787307" name="Yangchun" lat="22.1667" lng="111.7833"/>
        <location id="1156949639" name="Macheng" lat="31.1817" lng="115.0189"/>
        <location id="1566480168" name="Ilorin" lat="44324.0" lng="20180.0"/>
        <location id="1076727667" name="Teresina" lat="-5.0949" lng="-42.8042"/>
        <location id="1840009315" name="Omaha" lat="41.2627" lng="-96.0522"/>
        <location id="1156177817" name="Yuci" lat="37.6804" lng="112.73"/>
        <location id="1643556540" name="Saratov" lat="51.5333" lng="46.0"/>
        <location id="1076339714" name="Iguacu" lat="-22.74" lng="-43.47"/>
        <location id="1840023252" name="El Paso" lat="31.8479" lng="-106.4309"/>
        <location id="1360848527" name="Denpasar" lat="-8.6667" lng="115.2167"/>
        <location id="1156898134" name="Dehui" lat="44.5323" lng="125.6965"/>
        <location id="1484850125" name="Naucalpan de Juarez" lat="19.4753" lng="-99.2378"/>
        <location id="1356140143" name="Bhubaneshwar" lat="20.2644" lng="85.8281"/>
        <location id="1156849608" name="Tongchuan" lat="34.9057" lng="108.9422"/>
        <location id="1410964361" name="Cheongju" lat="36.6372" lng="127.4897"/>
        <location id="1566325734" name="Warri" lat="1193369.0" lng="27515.0"/>
        <location id="1178411563" name="Pointe-Noire" lat="-4.7889" lng="2466789.0"/>
        <location id="1156795164" name="Rongjiawan" lat="29.3801" lng="113.1"/>
        <location id="1484583620" name="San Luis Potosi" lat="22.1511" lng="-100.9761"/>
        <location id="1458469233" name="Butterworth" lat="745947.0" lng="100.3664"/>
        <location id="1356019118" name="Bhayandar" lat="44274.0" lng="72.85"/>
        <location id="1156943939" name="Renqiu" lat="38.7094" lng="116.1008"/>
        <location id="1484124846" name="Toluca" lat="19.2925" lng="-99.6569"/>
        <location id="1840013305" name="Honolulu" lat="21.3294" lng="-157.846"/>
        <location id="1484604775" name="Queretaro" lat="20.5875" lng="-100.3928"/>
        <location id="1156263165" name="Xindi" lat="29.8182" lng="113.4653"/>
        <location id="1156729960" name="Wu'an" lat="36.6941" lng="114.1847"/>
        <location id="1076793227" name="Sao Bernardo do Campo" lat="-23.6939" lng="-46.565"/>
        <location id="1484015319" name="Hermosillo" lat="29.0989" lng="-110.9542"/>
        <location id="1156182309" name="Wutong" lat="30.6326" lng="120.5474"/>
        <location id="1608766695" name="Taguig City" lat="14.5167" lng="121.05"/>
        <location id="1484107245" name="Saltillo" lat="25.4333" lng="-101.0"/>
        <location id="1156235854" name="Gaoyou" lat="32.7847" lng="119.4432"/>
        <location id="1156405731" name="Hejian" lat="38.4451" lng="116.0897"/>
        <location id="1156142520" name="Yiyang" lat="26.4103" lng="112.3913"/>
        <location id="1156046618" name="Puxi" lat="35.2125" lng="114.735"/>
        <location id="1156086381" name="Zijinglu" lat="34.7513" lng="112.9854"/>
        <location id="1156080077" name="Xiashi" lat="30.5333" lng="120.6833"/>
        <location id="1792019202" name="Trabzon" lat="41.005" lng="39.7225"/>
        <location id="1076922014" name="Joao Pessoa" lat="-7.0833" lng="-34.8333"/>
        <location id="1156259752" name="Dongyang" lat="29.2785" lng="120.2282"/>
        <location id="1840021024" name="McAllen" lat="26.2273" lng="-98.2471"/>
        <location id="1724981666" name="Valencia" lat="39.4667" lng="-0.375"/>
        <location id="1156033855" name="Qingping" lat="34.538" lng="113.3796"/>
        <location id="1392913753" name="Niigata" lat="37.9161" lng="139.0364"/>
        <location id="1392174500" name="Hamamatsu" lat="34.7167" lng="137.7333"/>
        <location id="1484669072" name="Morelia" lat="19.7683" lng="-101.1894"/>
        <location id="1608278212" name="Pasig City" lat="14.575" lng="121.0833"/>
        <location id="1356269375" name="Moradabad" lat="28.8418" lng="78.7568"/>
        <location id="1484516810" name="Culiacan" lat="24.8069" lng="-107.3939"/>
        <location id="1156524101" name="Xiangxiang" lat="27.7389" lng="112.5223"/>
        <location id="1360141408" name="Malang" lat="-7.98" lng="112.62"/>
        <location id="1156255316" name="Xingyi" lat="25.091" lng="104.9011"/>
        <location id="1156671495" name="Chaohucun" lat="31.6783" lng="117.7353"/>
        <location id="1156340393" name="Fuyang" lat="30.0533" lng="119.9519"/>
        <location id="1608824345" name="Antipolo" lat="14.5842" lng="121.1763"/>
        <location id="1826122597" name="Nottingham" lat="52.95" lng="-1.15"/>
        <location id="1156000460" name="Cencheng" lat="22.9297" lng="111.0186"/>
        <location id="1616172264" name="Krakow" lat="50.0614" lng="19.9372"/>
        <location id="1840005293" name="Hempstead" lat="40.6629" lng="-73.6089"/>
        <location id="1792511957" name="Erzurum" lat="39.9097" lng="41.2756"/>
        <location id="1784674685" name="Al `Ayn" lat="24.2075" lng="55.7447"/>
        <location id="1156837705" name="Songzi" lat="30.1772" lng="111.7732"/>
        <location id="1156973102" name="Laixi" lat="36.8667" lng="120.5333"/>
        <location id="1156515985" name="Zhongba" lat="31.7761" lng="104.7406"/>
        <location id="1156689964" name="Qingnian" lat="36.8494" lng="115.7061"/>
        <location id="1840019176" name="Albuquerque" lat="35.1053" lng="-106.6464"/>
        <location id="1566368729" name="Kaduna" lat="1216898.0" lng="914385.0"/>
        <location id="1484861603" name="Tlalnepantla" lat="19.5367" lng="-99.1947"/>
        <location id="1156544851" name="Xinhualu" lat="34.3962" lng="113.7249"/>
        <location id="1156267419" name="Guangshui" lat="31.6189" lng="113.8229"/>
        <location id="1276054552" name="Frankfurt" lat="50.1136" lng="1788807.0"/>
        <location id="1360684979" name="Samarinda" lat="-0.5022" lng="117.1536"/>
        <location id="1158439005" name="Changhua" lat="24.0667" lng="120.5333"/>
        <location id="1710690280" name="Pietermaritzburg" lat="-29.5833" lng="30.4167"/>
        <location id="1408328889" name="Hungnam" lat="39.8231" lng="127.6232"/>
        <location id="1356110593" name="Kolhapur" lat="44393.0" lng="74.2333"/>
        <location id="1862889027" name="Ciudad Guayana" lat="619666.0" lng="-62.6517"/>
        <location id="1170743755" name="Cucuta" lat="2620798.0" lng="-72.5047"/>
        <location id="1156933354" name="Licheng" lat="31.4174" lng="119.4786"/>
        <location id="1356024354" name="Thiruvananthapuram" lat="44324.0" lng="76.8997"/>
        <location id="1643040435" name="Tyumen" lat="57.15" lng="65.5333"/>
        <location id="1862252264" name="San Cristobal" lat="2112016.0" lng="-72.2322"/>
        <location id="1804644752" name="Zaporizhzhia" lat="47.8378" lng="35.1383"/>
        <location id="1484010310" name="Cancun" lat="21.1606" lng="-86.8475"/>
        <location id="1392106283" name="Kumamoto" lat="32.8031" lng="130.7078"/>
        <location id="1156866870" name="Chengguan" lat="35.4599" lng="113.7975"/>
        <location id="1156609562" name="Nehe" lat="48.48" lng="124.8738"/>
        <location id="1566574518" name="Sokoto" lat="13.0622" lng="160463.0"/>
        <location id="1840006507" name="Birmingham" lat="33.5277" lng="-86.7987"/>
        <location id="1156756935" name="Zunhua" lat="40.1881" lng="117.9593"/>
        <location id="1364158221" name="Orumiyeh" lat="37.55" lng="45.1"/>
        <location id="1566930579" name="Oyo" lat="2349788.0" lng="2714909.0"/>
        <location id="1156089788" name="Wugang" lat="26.7345" lng="110.6293"/>
        <location id="1156968311" name="Shuangqiao" lat="35.0833" lng="112.5833"/>
        <location id="1250363682" name="Rennes" lat="48.1147" lng="-1.6794"/>
        <location id="1156450911" name="Sizhan" lat="39.0099" lng="106.3694"/>
        <location id="1156930148" name="Langzhong" lat="31.5833" lng="105.972"/>
        <location id="1826921049" name="Bristol" lat="51.45" lng="-2.5833"/>
        <location id="1156315498" name="Qian'an" lat="40.0059" lng="118.6973"/>
        <location id="1804939658" name="Lviv" lat="49.8419" lng="24.0315"/>
        <location id="1156817518" name="Zouping" lat="36.8625" lng="117.7424"/>
        <location id="1276376509" name="Bremen" lat="53.1153" lng="2219062.0"/>
        <location id="1484737671" name="Reynosa" lat="26.0922" lng="-98.2778"/>
        <location id="1368003357" name="An Najaf" lat="32.029" lng="44.3396"/>
        <location id="1392967248" name="Sagamihara" lat="35.5667" lng="139.3667"/>
        <location id="1156383681" name="Guli" lat="28.9008" lng="120.0284"/>
        <location id="1840015988" name="Sarasota" lat="27.3386" lng="-82.5431"/>
        <location id="1392954750" name="Okayama" lat="34.65" lng="133.9167"/>
        <location id="1124112672" name="Mississauga" lat="43.6" lng="-79.65"/>
        <location id="1156837145" name="Lingbao Chengguanzhen" lat="34.5221" lng="110.8786"/>
        <location id="1156406202" name="Anlu" lat="31.2575" lng="113.6783"/>
        <location id="1156264408" name="Wusong" lat="30.9333" lng="117.7667"/>
        <location id="1840034249" name="Dayton" lat="39.7797" lng="-84.1998"/>
        <location id="1566212729" name="Enugu" lat="914355.0" lng="1111251.0"/>
        <location id="1458236750" name="George Town" lat="820092.0" lng="100.3292"/>
        <location id="1076000699" name="Jaboatao" lat="-8.1803" lng="-35.0014"/>
        <location id="1076625886" name="Santo Andre" lat="-23.6572" lng="-46.5333"/>
        <location id="1156116456" name="Xichang" lat="27.8983" lng="102.2706"/>
        <location id="1170765625" name="Soledad" lat="33878.0" lng="-74.77"/>
        <location id="1156254788" name="Chengxiang" lat="31.4515" lng="121.1043"/>
        <location id="1643256295" name="Tolyatti" lat="53.5167" lng="49.4167"/>
        <location id="1356139858" name="Saharanpur" lat="29.964" lng="77.546"/>
        <location id="1356851618" name="Warangal" lat="17.9756" lng="79.6011"/>
        <location id="1076786452" name="Osasco" lat="-23.5328" lng="-46.7919"/>
        <location id="1156141962" name="Dashiqiao" lat="40.6328" lng="122.5021"/>
        <location id="1760555544" name="Latakia" lat="35.5236" lng="35.7917"/>
        <location id="1840000373" name="Rochester" lat="43.168" lng="-77.6162"/>
        <location id="1840020319" name="Fresno" lat="36.7831" lng="-119.7941"/>
        <location id="1360685223" name="Banjarmasin" lat="-3.3333" lng="114.5833"/>
        <location id="1356567087" name="Salem" lat="24047.0" lng="78.1667"/>
        <location id="1156011120" name="Changsha" lat="22.3762" lng="112.6877"/>
        <location id="1250071647" name="Grenoble" lat="45.1715" lng="1944674.0"/>
        <location id="1156077046" name="Shishi" lat="24.7355" lng="118.6434"/>
        <location id="1484002410" name="Guadalupe" lat="25.6775" lng="-100.2597"/>
        <location id="1076527830" name="Aracaju" lat="-10.9111" lng="-37.0717"/>
        <location id="1566483284" name="Bauchi" lat="459750.0" lng="2389662.0"/>
        <location id="1124567288" name="Hamilton" lat="43.2567" lng="-79.8692"/>
        <location id="1616832750" name="Lodz" lat="51.7769" lng="19.4547"/>
        <location id="1156690651" name="Miluo Chengguanzhen" lat="28.8049" lng="113.0745"/>
        <location id="1156145272" name="Gaizhou" lat="40.4019" lng="122.3499"/>
        <location id="1392235505" name="Shizuoka" lat="34.9756" lng="138.3825"/>
        <location id="1356113556" name="Malegaon" lat="20.55" lng="74.55"/>
        <location id="1368597794" name="Karbala'" lat="32.6167" lng="44.0333"/>
        <location id="1156044041" name="Leling" lat="37.7333" lng="117.2167"/>
        <location id="1076783887" name="Sao Jose dos Campos" lat="-23.1789" lng="-45.8869"/>
        <location id="1156444449" name="Jianshe" lat="34.2189" lng="113.7693"/>
        <location id="1484463183" name="Acapulco de Juarez" lat="16.8636" lng="-99.8825"/>
        <location id="1826289852" name="Sheffield" lat="53.3833" lng="-1.4667"/>
        <location id="1156033208" name="Jingcheng" lat="32.0058" lng="120.2547"/>
        <location id="1608379532" name="City of Paranaque" lat="14.4667" lng="121.0167"/>
        <location id="1356707865" name="Kochi" lat="2837084.0" lng="76.2833"/>
        <location id="1840001044" name="Allentown" lat="40.5961" lng="-75.4756"/>
        <location id="1586038700" name="Bahawalpur" lat="29.3956" lng="71.6722"/>
        <location id="1360027771" name="Tasikmalaya" lat="-7.3333" lng="108.2"/>
        <location id="1446227359" name="Macau" lat="22.203" lng="113.545"/>
        <location id="1484215762" name="Torreon" lat="25.5394" lng="-103.4486"/>
        <location id="1156368551" name="Xinmin" lat="41.9952" lng="122.8224"/>
        <location id="1156029691" name="Shanhu" lat="29.5908" lng="120.8176"/>
        <location id="1156658422" name="Zhongshu" lat="27.8116" lng="106.4133"/>
        <location id="1156107208" name="Xigaze" lat="29.2649" lng="88.8799"/>
        <location id="1036153217" name="Gold Coast" lat="-28.0167" lng="153.4"/>
        <location id="1380428434" name="Palermo" lat="38.1157" lng="13.3613"/>
        <location id="1608831546" name="Cagayan de Oro" lat="1071471.0" lng="124.65"/>
        <location id="1356190221" name="Gorakhpur" lat="26.7611" lng="83.3667"/>
        <location id="1156720536" name="Pinghu" lat="30.7005" lng="121.0104"/>
        <location id="1156503907" name="Guankou" lat="30.9933" lng="103.624"/>
        <location id="1840021672" name="Tulsa" lat="36.1284" lng="-95.9042"/>
        <location id="1156009046" name="Yatou" lat="37.1653" lng="122.4867"/>
        <location id="1156143149" name="Songyang" lat="34.4161" lng="113.0424"/>
        <location id="1840015130" name="Cape Coral" lat="26.6446" lng="-81.9956"/>
        <location id="1408498177" name="Ch'ongjin" lat="41.8" lng="129.7831"/>
        <location id="1076174955" name="Sao Jose dos Pinhais" lat="-25.57" lng="-49.18"/>
        <location id="1156103317" name="Puyang Chengguanzhen" lat="35.7004" lng="114.98"/>
        <location id="1156678111" name="Qionghu" lat="28.8417" lng="112.3595"/>
        <location id="1156660138" name="Yanshi Chengguanzhen" lat="34.723" lng="112.7796"/>
        <location id="1076524478" name="Ribeirao Preto" lat="-21.1783" lng="-47.8067"/>
        <location id="1608418544" name="Dasmarinas" lat="14.3294" lng="120.9367"/>
        <location id="1024079828" name="Huambo" lat="-12.7667" lng="15.7333"/>
        <location id="1156574542" name="Wenchang" lat="31.054" lng="116.9507"/>
        <location id="1156989733" name="Shulan" lat="44.4167" lng="126.95"/>
        <location id="1862657837" name="Catia La Mar" lat="44357.0" lng="-67.0333"/>
        <location id="1384983838" name="Bouake" lat="1801925.0" lng="-5.0331"/>
        <location id="1368735317" name="As Sulaymaniyah" lat="35.55" lng="45.4333"/>
        <location id="1410037247" name="Hwasu-dong" lat="37.2" lng="126.7667"/>
        <location id="1410494847" name="Jeonju" lat="35.8219" lng="127.1489"/>
        <location id="1484854616" name="Durango" lat="24.0167" lng="-104.6667"/>
        <location id="1356016156" name="Shimoga" lat="13.9304" lng="75.56"/>
        <location id="1410585171" name="Ansan" lat="37.3236" lng="126.8219"/>
        <location id="1716032632" name="Bulawayo" lat="-20.1667" lng="28.5667"/>
        <location id="1156207794" name="Xiping" lat="25.6005" lng="103.8166"/>
        <location id="1156476348" name="Sanhe" lat="39.9808" lng="117.0701"/>
        <location id="1356374905" name="Guntur" lat="44271.0" lng="80.45"/>
        <location id="1156840276" name="Dali" lat="25.7003" lng="100.1564"/>
        <location id="1840018905" name="Concord" lat="37.9722" lng="-122.0016"/>
        <location id="1356539761" name="Tiruppur" lat="11.1075" lng="77.3398"/>
        <location id="1410020455" name="Ch'onan" lat="36.8064" lng="127.1522"/>
        <location id="1724907391" name="Zaragoza" lat="41.6483" lng="-0.883"/>
        <location id="1643983138" name="Izhevsk" lat="56.85" lng="53.2167"/>
        <location id="1156259342" name="Guixi" lat="28.2861" lng="117.2083"/>
        <location id="1392505502" name="Honcho" lat="35.6947" lng="139.9825"/>
        <location id="1076758708" name="Sorocaba" lat="-23.5019" lng="-47.4578"/>
        <location id="1484460894" name="Villahermosa" lat="17.9892" lng="-92.9281"/>
        <location id="1458989343" name="Petaling Jaya" lat="3.1073" lng="101.6067"/>
        <location id="1156027100" name="Wuxue" lat="29.8518" lng="115.5539"/>
        <location id="1528871692" name="Utrecht" lat="52.1003" lng="44535.0"/>
        <location id="1180518247" name="Kikwit" lat="-5.0333" lng="18.8167"/>
        <location id="1840018825" name="Colorado Springs" lat="38.8674" lng="-104.7606"/>
        <location id="1608492120" name="Valenzuela" lat="44391.0" lng="120.9833"/>
        <location id="1156487293" name="Gaobeidian" lat="39.3257" lng="115.8678"/>
        <location id="1156490037" name="Qufu" lat="35.6" lng="116.9833"/>
        <location id="1156104573" name="Ruiming" lat="25.8833" lng="116.0333"/>
        <location id="1616108520" name="Wroclaw" lat="51.1077" lng="17.0353"/>
        <location id="1364630382" name="Rasht" lat="37.2833" lng="49.6"/>
        <location id="1250091495" name="Nantes" lat="47.2181" lng="-1.5528"/>
        <location id="1276171358" name="Stuttgart" lat="48.7761" lng="9.1775"/>
        <location id="1682958157" name="Al Hufuf" lat="25.3608" lng="49.5997"/>
        <location id="1156422214" name="Xinshi" lat="31.0236" lng="113.1079"/>
        <location id="1068793894" name="Cochabamba" lat="-17.3935" lng="-66.157"/>
        <location id="1643318931" name="Barnaul" lat="53.3567" lng="83.7872"/>
        <location id="1422886065" name="Tripoli" lat="34.4333" lng="35.8333"/>
        <location id="1156661253" name="Jin'e" lat="29.3395" lng="105.2868"/>
        <location id="1434915572" name="Benghazi" lat="32.1167" lng="20.0667"/>
        <location id="1804544901" name="Kryvyy Rih" lat="47.9086" lng="33.3433"/>
        <location id="1410188674" name="Yanggok" lat="37.6367" lng="127.2142"/>
        <location id="1156166828" name="Changping" lat="40.2248" lng="116.1944"/>
        <location id="1356096816" name="Raurkela" lat="22.2492" lng="84.8828"/>
        <location id="1818000039" name="Halwan" lat="29.8419" lng="31.3342"/>
        <location id="1840015163" name="Charleston" lat="32.8153" lng="-79.9628"/>
        <location id="1484504936" name="Chimalhuacan" lat="19.4167" lng="-98.9"/>
        <location id="1156258586" name="Xinxing" lat="39.8734" lng="124.1453"/>
        <location id="1156236948" name="Suohe" lat="34.7879" lng="113.392"/>
        <location id="1356972351" name="Mangalore" lat="2485080.0" lng="74.8806"/>
        <location id="1156263400" name="Zhuangyuan" lat="37.3" lng="120.8333"/>
        <location id="1643668944" name="Ulyanovsk" lat="54.3167" lng="48.3667"/>
        <location id="1643439037" name="Irkutsk" lat="52.2833" lng="104.3"/>
        <location id="1356722310" name="Nanded" lat="19.15" lng="77.3333"/>
        <location id="1608869358" name="Bacoor" lat="14.4624" lng="120.9645"/>
        <location id="1360992394" name="Pontianak" lat="-0.0206" lng="109.3414"/>
        <location id="1156127276" name="Bazhou" lat="39.1235" lng="116.386"/>
        <location id="1840000466" name="Springfield" lat="42.1155" lng="-72.5395"/>
        <location id="1156573684" name="Turpan" lat="42.95" lng="89.1822"/>
        <location id="1276615258" name="Dusseldorf" lat="51.2311" lng="2127326.0"/>
        <location id="1156294952" name="Xingtai" lat="37.0659" lng="114.4753"/>
        <location id="1156474288" name="Meihekou" lat="42.5279" lng="125.678"/>
        <location id="1156897463" name="Jurong" lat="31.9579" lng="119.1595"/>
        <location id="1156077330" name="Zhugang" lat="28.1277" lng="121.2288"/>
        <location id="1643175363" name="Khabarovsk" lat="48.4833" lng="135.0667"/>
        <location id="1156456552" name="Xinji" lat="37.9423" lng="115.2118"/>
        <location id="1408482040" name="Hamhung" lat="39.9167" lng="127.5333"/>
        <location id="1360329102" name="Serang" lat="-6.12" lng="106.1503"/>
        <location id="1682470726" name="Buraydah" lat="26.3333" lng="43.9667"/>
        <location id="1887324526" name="Ta`izz" lat="13.5789" lng="44.0219"/>
        <location id="1250819356" name="Montpellier" lat="43.6119" lng="2510008.0"/>
        <location id="1032233996" name="San Miguel de Tucuman" lat="-26.8167" lng="-65.2167"/>
        <location id="1643338528" name="Yaroslavl" lat="57.6167" lng="39.85"/>
        <location id="1156996913" name="Zhangshu" lat="28.0667" lng="115.5375"/>
        <location id="1840002928" name="Grand Rapids" lat="42.962" lng="-85.6562"/>
        <location id="1643832017" name="Vladivostok" lat="43.1167" lng="131.9"/>
        <location id="1458763489" name="Kuantan" lat="2289036.0" lng="103.3333"/>
        <location id="1356872061" name="Cuttack" lat="20.45" lng="85.8667"/>
        <location id="1360645580" name="Jambi" lat="-1.59" lng="103.61"/>
        <location id="1156045160" name="Zhuozhou" lat="39.4887" lng="115.9918"/>
        <location id="1076495001" name="Uberlandia" lat="-18.9189" lng="-48.2769"/>
        <location id="1752059374" name="Gothenburg" lat="57.6717" lng="11.981"/>
        <location id="1156770851" name="Tianchang" lat="32.6853" lng="119.0041"/>
        <location id="1076009922" name="Canoas" lat="-29.92" lng="-51.18"/>
        <location id="1586696588" name="Sargodha" lat="32.0836" lng="72.6711"/>
        <location id="1608544537" name="Las Pinas City" lat="14.45" lng="120.9833"/>
        <location id="1360181436" name="Cimahi" lat="-6.8833" lng="107.5333"/>
        <location id="1392975133" name="Kawaguchi" lat="35.8078" lng="139.7242"/>
        <location id="1484832519" name="Tuxtla" lat="16.7528" lng="-93.1167"/>
        <location id="1360500922" name="Balikpapan" lat="-1.1489" lng="116.9031"/>
        <location id="1156277802" name="Qamdo" lat="31.1375" lng="97.1777"/>
        <location id="1710149138" name="Durban" lat="-29.8583" lng="31.025"/>
        <location id="1392120675" name="Kagoshima" lat="31.58" lng="130.5281"/>
        <location id="1608171585" name="General Santos" lat="6.1167" lng="125.1667"/>
        <location id="1356592607" name="Chanda" lat="19.95" lng="79.3"/>
        <location id="1682494753" name="Al Hillah" lat="23.4895" lng="46.7564"/>
        <location id="1643580480" name="Makhachkala" lat="42.9833" lng="47.4833"/>
        <location id="1032456103" name="Mar del Plata" lat="-38.0" lng="-57.55"/>
        <location id="1124625989" name="Brampton" lat="43.6833" lng="-79.7667"/>
        <location id="1156180482" name="Luocheng" lat="30.9793" lng="104.28"/>
        <location id="1840020580" name="Mission Viejo" lat="33.6095" lng="-117.655"/>
        <location id="1276562886" name="Dortmund" lat="51.5139" lng="1005696.0"/>
        <location id="1156225985" name="Chuxiong" lat="25.0461" lng="101.5436"/>
        <location id="1608725647" name="Makati City" lat="14.55" lng="121.0333"/>
        <location id="1840000417" name="Albany" lat="42.6664" lng="-73.7987"/>
        <location id="1458194263" name="Shah Alam" lat="3.0833" lng="101.5333"/>
        <location id="1840014486" name="Knoxville" lat="35.9692" lng="-83.9496"/>
        <location id="1276769247" name="Essen" lat="51.4508" lng="7.0131"/>
        <location id="1076112309" name="Cuiaba" lat="-15.5958" lng="-56.0969"/>
        <location id="1156107332" name="Shangzhi" lat="45.2116" lng="127.962"/>
        <location id="1156018338" name="Botou" lat="38.06" lng="116.56"/>
        <location id="1170940590" name="Bucaramanga" lat="7.1186" lng="-73.1161"/>
        <location id="1410581095" name="Anyang" lat="37.3925" lng="126.9269"/>
        <location id="1380716540" name="Genoa" lat="44.4072" lng="8.934"/>
        <location id="1156174997" name="Kuiju" lat="36.8528" lng="119.3904"/>
        <location id="1484087945" name="Tlaquepaque" lat="20.6167" lng="-103.3167"/>
        <location id="1392172935" name="Hachioji" lat="35.6667" lng="139.3167"/>
        <location id="1356970407" name="Dehra Dun" lat="30.318" lng="78.029"/>
        <location id="1682956102" name="At Ta'if" lat="21.2667" lng="40.4167"/>
        <location id="1608850554" name="San Jose del Monte" lat="14.8139" lng="121.0453"/>
        <location id="1840019148" name="Bakersfield" lat="35.3529" lng="-119.0359"/>
        <location id="1840020135" name="Ogden" lat="41.2278" lng="-111.9682"/>
        <location id="1156284109" name="Xiulin" lat="29.7211" lng="112.4037"/>
        <location id="1156244234" name="Fu'an" lat="44223.0" lng="119.6333"/>
        <location id="1724397372" name="Malaga" lat="36.7167" lng="-4.4167"/>
        <location id="1643258928" name="Tomsk" lat="56.4886" lng="84.9522"/>
        <location id="1364554896" name="Kerman" lat="30.2833" lng="57.0667"/>
        <location id="1826028894" name="Kingston upon Hull" lat="53.7444" lng="-0.3325"/>
        <location id="1818406471" name="Al Mahallah al Kubra" lat="30.9667" lng="31.1667"/>
        <location id="1156158643" name="Luofeng" lat="37.359" lng="120.396"/>
        <location id="1156184681" name="Lingyuan" lat="41.2407" lng="119.3957"/>
        <location id="1840013941" name="Baton Rouge" lat="30.4418" lng="-91.131"/>
        <location id="1170386718" name="Pereira" lat="2266057.0" lng="-75.68"/>
        <location id="1862318264" name="Ciudad Bolivar" lat="8.1167" lng="-63.55"/>
        <location id="1356045686" name="Durgapur" lat="23.55" lng="87.32"/>
        <location id="1643685056" name="Orenburg" lat="51.7667" lng="55.1"/>
        <location id="1156921843" name="Shenzhou" lat="38.0005" lng="115.5541"/>
        <location id="1356093694" name="Asansol" lat="23.6833" lng="86.9667"/>
        <location id="1608244137" name="Bacolod" lat="1777180.0" lng="122.9509"/>
        <location id="1840000791" name="Akron" lat="41.0798" lng="-81.5219"/>
